name,categories,lat,long
The Swan Inn,Pub,51.21075494572646,0.06072521209716797
Hilden Manor (Beefeater),Pub,51.20625322883591,0.26127129793167114
Angelfest 6,Beer Garden,51.21144485473633,0.2698479890823364
The Royal Oak,Pub,51.20676,0.27848
Angelfest 2,Beer Garden,51.2115946930527,0.27007823613299986
Woolpack Inn,Pub,51.20852346656224,0.4391580820083618
The Beehive,Pub,51.2196611605589,-0.20070430793892233
Lal Akash,Indian Restaurant,51.218700663069676,-0.04923034913813614
The Lagham,Bar,51.21849822998047,-0.049309100955724716
The Harp,Strip Club,51.220781824506595,0.39400577545166016
The George,Bar,51.22072574603686,0.43026155134312144
The Plough,Pub,51.22852008900208,-0.1761654000441115
Marquis of Granby,Pub,51.23267415054375,-0.17092108726501465
The Old Chestnut,Pub,51.227743866767526,-0.1713039771083418
The Garibaldi,Pub,51.233788,-0.174799
Westerham Brewery,Brewery,51.23092,0.075465
Rose & Crown,Pub,51.227929346528605,0.33170342445373535
The Hop Pole,Pub,51.22784495333865,0.4056204273489462
The Black Horse,Pub,51.240221,-0.220904
The Bell Pub,Pub,51.237235945326894,-0.20537680873795602
Red Cross,Pub,51.23806998737595,-0.20983569138612007
Prince of Wales,Pub,51.24204467074573,-0.20307739827775276
Four Hops,Beer Bar,51.23851168763209,-0.21086454391479492
The Bull's Head,Pub,51.237813918826326,-0.2091353968641951
Pilgrim Brewery,Brewery,51.238112,-0.210487
JJ Whispers,Nightclub,51.23793445206173,-0.20375643750909106
The Cage Wine Bar,Wine Bar,51.23738921213279,-0.2074116739412094
The Red Lion Inn,Pub,51.238048,-0.202158
The Nutley Hall,Pub,51.23923041256209,-0.21099328994750977
The Roe Deer,Pub,51.24107927393552,-0.19605485316805296
The Red Lion,Pub,51.240222423295435,-0.17694104011635778
Eagle's Nest,Bar,51.239161,-0.16878
The White Lion,Pub,51.237494,-0.175782
Home Cottage Pub,Pub,51.23909740663366,-0.16457198953714824
The Queens Head,Pub,51.23938212249771,-0.1266252808276548
The Windmill,Bar,51.237358231775815,0.18784784594920928
The Bar Bros,Cocktail Bar,51.2509826,-0.20774370000003728
The Jolly Brickmakers,Pub,51.25327071335263,-0.1580285705531907
Star Bars - Mobile Bars and Events,Pub,51.2494762,-0.16122710000001916
The White Hart (Beefeater),Pub,51.247304859075214,-0.06639984072409241
Hare And Hounds Pub Godstone,Pub,51.24835685139694,-0.06814082738682536
The Carpenters Arms,Pub,51.248175414391326,0.040117454737233826
Fox And Hounds,Pub,51.24819626038258,0.10555482181899535
The White Rock Inn,Pub,51.246624,0.22925
The Kentish Rifleman,Pub,51.24986219940475,0.3091299533843994
The Swan On The Green,Pub,51.24823456607751,0.3546508532107517
The Railway Pub,Pub,51.24961462562887,0.42664100437621605
The Bull Farleigh,Bar,51.25237925,0.48479518
The Limes,Pub,51.25698208808899,-0.14841735363006592
The Plough,Pub,51.25830939101918,-0.09623879392758765
Royal British Legion,Pub,51.2601676,-0.0191127
The Bull Limpsfield,Pub,51.25946385513514,0.01369179693767864
Royal Oak Hotel (Brook Hotels),Hotel,51.261712709263094,0.18059786596447608
Papermakers,Pub,51.25781783429257,0.300865546635702
"Queen's Head, Mereworth",Pub,51.263631343444004,0.37868375351815875
The Fox on The Hill,Pub,51.270022,-0.211422
The Harrow,Pub,51.26852114515906,-0.09973668288399187
Комната Гора,Nightclub,51.272533,-0.086613
The Padwell,Pub,51.273187,0.248524
The Plough,Pub,51.26692398262682,0.27413633791837055
Red Start Inn,Pub,51.267665468837166,0.4720748027960474
Duke of Edinburgh,Pub,51.26762281370907,0.48287004232406616
Crown & Pepper,Pub,51.281314,-0.075437
The Pilgrim,Pub,51.281373,-0.075706125
the whytleafe tavern,Bar,51.2833,-0.041272
The White Hart,Restaurant,51.27668737705398,0.11220580276875937
Cockney Woolpack,Beer Garden,51.278064,0.127573
The Kings Head (Bessels Green),Pub,51.27926944981372,0.15804227096673154
The Kings Head,Pub,51.27926482358824,0.15741104649028442
Bayham Road,Brewery,51.281085,0.198258
The Harrow Inn,Pub,51.277622673412935,0.27466812183228273
Old House,Pub,51.27907413952164,0.2776589651216454
The Plough Basted,Pub,51.277246,0.304004
The Kings Arms,Pub,51.282649105539285,0.3499778598525309
The Fleeting Brook,Pub,51.29083463687096,-0.1024725824670929
The Village Inn,Pub,51.28809688794762,-0.0979397333528383
Golden Lion,Pub,51.2876636237914,-0.0894514309741803
Bull Finch,Bar,51.287311898563374,0.1681278539356758
The Miners Arms,Pub,51.290184218310074,0.1684427261352539
Rose And Crown,Pub,51.29039444317678,0.16917271131063905
Pinewood Manor,Gay Bar,51.288674,0.205076
Five Bells,Pub,51.289261644498204,0.22092819213867188
The Sennokian,Brewery,51.29338982300885,0.215822389380531
George & Dragon,Pub,51.28718662440019,0.2863955497741699
The Black Horse and Hoodens,Pub,51.29055719474471,0.3100925419069006
Cafe Troika,Wine Bar,51.29279732674729,0.30680715327245006
Henry Simmonds,Pub,51.292745019563974,0.306868465811742
The Blue Anchor,English Restaurant,51.29013725136382,0.3244131803512573
Farmhouse,Pub,51.29369591455416,0.4083907641475875
The Malling Jug,Pub,51.29382865307224,0.4082528435810673
The King & Queen,Pub,51.287715589004875,0.4390056355362785
Poppy Fields Maidstone,Pub,51.290804871595526,0.48824582209010714
Banstead Football Club,Sports Bar,51.302605,-0.233593
Brewers Fayre Heathside,Pub,51.303993,-0.219314
Chez Stokes,Bar,51.301269,-0.095297
Rose And Crown,Bar,51.30022802510546,0.16073
Wheatsheaf,Bar,51.30094528198242,0.4049454629421234
The Bull,Pub,51.29605902846074,0.4096772279535485
Hamlets Hotel,Hotel Bar,51.298751,0.439137
The Wattenden,Pub,51.30771605903798,-0.10231793040456089
The Radius Arms,Pub,51.30928719495384,-0.07987180405851296
The Whyteleafe Tavern,Pub,51.309793303894665,-0.07989231752371011
The White Lion,Pub,51.309434104635116,-0.05410312017881451
The Horseshoe,Pub,51.30937768245966,-0.053362895241560966
The bull,Bar,51.308404,-0.042568
Flying Machine Pub,Pub,51.31061,0.035536
Rising Sun Pub,Pub,51.313671,0.167458
Szlug U Jagody,Beer Garden,51.309912,0.19034
Cigarette In Otford,Pub,51.30994,0.190313
Rose & Crown,Pub,51.3082729836221,0.31015992164611816
The George and Dragon,Pub,51.3083685780975,0.30869374678452577
The Duke Of Wellington,Pub,51.31360438751374,0.39480391625971406
Castle Lake (Brewers Fayre),Pub,51.30638369247653,0.4241124678752051
Fielding Drive Street Party,Beer Garden,51.308456,0.440541
Banstead Village Club,Other Nightlife,51.32229835637875,-0.20359039306640625
The Mint,Pub,51.317598,-0.190229
The Pembroke,Pub,51.32103639844657,-0.13874096970367963
Mango Bar,Bar,51.319351,-0.139137
Smith & Jones,Pub,51.320974,-0.138794
Smuggler's Inn,Bar,51.318921,-0.150362
Pistols,Wine Bar,51.3232455484722,-0.1336596775497653
Durgan Arms,Pub,51.32141,-0.115302
King Don,Brewery,51.31848623240143,-0.09015366210806537
A18 Mr Watkins,Cocktail Bar,51.317032,-0.069315
Good Companions,Pub,51.31918860925293,-0.0650094879601212
The Harrow,Gastropub,51.319529892801754,-0.042738247536300636
Njoy Bar & Lounge,Hookah Bar,51.320155667427194,-0.045126456250110795
The Crown Otford,Pub,51.31882429,0.15898987
The Rising Sun,Pub,51.31763823722972,0.240401029586792
The Nevill Bull,Pub,51.318805811018194,0.4096890128473258
Freemasons Arms,Pub,51.31934812010607,0.43650805950164795
The Little Gem,Pub,51.32055093465645,0.4795977842418403
Red Bull,Pub,51.31801210790908,0.47974169617874024
The Cock Inn,Restaurant,51.33066504058184,0.13569985451666197
"Rose & Crown, Halstead",Pub,51.329269,0.136083
Ye Olde George Inn,Pub,51.33287833209105,0.18334983166887509
Castle,Pub,51.333210639768815,0.18366007058910863
The Fox And Hounds,Pub,51.330862080715356,0.22403854801288944
The Villager,Bar,51.329636,0.358708
Kent Brewery,Brewery,51.329628025518204,0.4045720198025936
The Bull,Bar,51.330176,0.442202
The Monks Head,Pub,51.33058904999962,0.44057411938329827
Appotech,Cocktail Bar,51.342224449435655,-0.12577690700016
The Jolly Farmers,Pub,51.3380481109738,-0.11659054174958301
The Foxley Hatch (Wetherspoon),Pub,51.33942383890845,-0.11734536718149792
The Pear Tree,Pub,51.339889,-0.114585
Elliotts,Dive Bar,51.33823750880441,-0.11505002431903943
Cameonls,Sake Bar,51.3395998776287,-0.11494831787514492
The jolly farmers,Brewery,51.33797013057822,-0.11671592470271698
Big Mike's,Bar,51.338879989999995,-0.11526435714285713
Tripple,Sake Bar,51.33951285646712,-0.11493654921294337
Old Tratonians' Club House,Lounge,51.338126,-0.110076
Purley Bury Tennis Club,Bar,51.337948,-0.102981
war bank pub,Pub,51.33939458851798,0.010152158287153804
Crown Inn,Pub,51.339741101971846,0.030469894409179688
The Crown Inn,Pub,51.339731,0.030432
The Bulls Head,Bar,51.339689862988266,0.11178205967887538
The Gamecock,Pub,51.343684,0.259956
The Green Man,Pub,51.34286772796061,0.3324092655372677
Robin Hood Pub,Pub,51.337449478581895,0.4868671882191708
Brophys Bar,Lounge,51.352819,-0.144688
beddee,Brewery,51.350352,-0.140601
Bedouins,Hookah Bar,51.35334515934748,-0.11719115945748967
THE PLACE @ THE THEATRE HALL,Cocktail Bar,51.35120063065598,-0.12084960937499999
Red Deer,Bar,51.3532140508223,-0.09793956221706968
The Purley Arms,Bar,51.35137003520335,-0.09861662088996792
DnB Skank Cave,Speakeasy,51.347253,-0.100774
Danskitchen,Nightclub,51.347925,-0.081972
Shooooosh,Nightclub,51.34742711858948,-0.051332719361443166
Forestdale Forum,Bar,51.346550149882454,-0.04221796989440918
The Alwyn Club,Nightclub,51.34866055211977,-0.01994629852418251
Queen's Head,Pub,51.352297571571505,0.08970172849968791
The Bo Peep,Pub,51.351835401816494,0.13984587387814998
RBar Gravesend,Bar,51.347982,0.38231
Homeward Bound,Pub,51.35028430884969,0.44576168060302734
Craddock Court,Beer Garden,51.35098062134116,0.46112437050003313
Medway Inn,Pub,51.35086511040972,0.45853640052851924
Watermans Arms,Pub,51.350889049794475,0.4585397243499756
Ye Olde Red Lion,Pub,51.3596761624243,-0.21574046568393496
The Harrow Inn,Pub,51.357555,-0.216094
The Claret Wine Bar,Bar,51.358745277949645,-0.21663643198974072
Prince of Wales,Bar,51.36064793997585,-0.21768350982533355
All Bar One,Bar,51.3619950297647,-0.19329197920466276
Shinner & Sudtone,Pub,51.361898,-0.192486
The Cock & Bull,Pub,51.36046134526654,-0.19173444602213607
The Moon on the Hill (Wetherspoon),Pub,51.361962485057184,-0.19306235900577753
Wonderland,Nightclub,51.36137107455178,-0.19278109073638916
The Little Windsor,Pub,51.36373571727349,-0.18779941152664933
Slug & Lettuce,Bar,51.3609102,-0.1919995
The Nightingale,Bar,51.362670691881334,-0.18532991409301758
EBB & Flow,Bar,51.36154357742813,-0.19231170415878293
The Dolphin,Bar,51.3624,-0.193626
Chicagos Sutton,Nightclub,51.36229554839704,-0.1917886734008789
chigagoes,Nightclub,51.36235,-0.18587
Bounce,Bar,51.36201857303572,-0.19224449833817892
The Old Bank,Pub,51.35979626952257,-0.19135139515646263
New york new york :d xx,Nightclub,51.3621629935647,-0.19216716214663296
Rift & Co,Bar,51.359774,-0.191547
Sutton Arms,Pub,51.361688052712715,-0.1922543278323134
NewYork NewYork Sutton,Nightclub,51.36218836397999,-0.19221782684326172
Dump,Nightclub,51.362208,-0.191648
The Wallington Arms,Bar,51.360092010339145,-0.14988124728069965
The Whispering Moon (Wetherspoon),Pub,51.36010885162771,-0.14957975400912316
Blacks Bar,Bar,51.359989,-0.149644
Star,Pub,51.36137107455178,-0.15033245086669922
The Melbourne,Pub,51.36126573350274,-0.1500799720466121
DeAnn's,Bar,51.35687255859375,-0.14879119396209717
Hilton Hotel Bar,Hotel Bar,51.357796805880824,-0.11540304429367697
Crown and Sceptre,Pub,51.35955398159411,-0.09665856198252425
The Croham Arms,Pub,51.36229554839704,-0.09572267532348633
The Stag & Hounds,Pub,51.36235535144806,-0.09674727916717529
The Earl of Eldon,Pub,51.35973645194335,-0.09765386581420898
The Folly,Bar,51.36253564714899,-0.09810683324702085
The Woodman,Pub,51.36047337919323,-0.09647369384765625
South Croydon Conservative Club,Bar,51.360856784230364,-0.09543824276603076
Old Whitgiftian Clubhouse,Beer Garden,51.359359601721,-0.08447680772070683
Coombe Lodge (Beefeater),Restaurant,51.36254688260847,-0.07160027655361718
Wolfie's Man Cave,Sports Bar,51.361695,0.002378
Change Of Horses,Pub,51.359493,0.069903
Woodman,Pub,51.35925409314159,0.06757557392120361
The Chelsfield Public House,Bar,51.356898729697946,0.10642849109890168
Simon & Colin's house of fun,Other Nightlife,51.357445,0.107839
The Five Bells,Pub,51.357274,0.127873
The Kentagon,Bar,51.361765029558136,0.2630066437843223
The Grasshopper Inn,Bar,51.357509874236534,0.2644435190161272
Brands Hatch Hailwood Bar,Bar,51.35979128750534,0.26559340391052877
The Richmond Pub,Pub,51.361292187396934,0.263150522935982
The White Swan,Pub,51.35726008292322,0.2941208526939859
Gander Inn,Pub,51.37136373096205,-0.20889066067146445
The Plough,Pub,51.36658432919155,-0.20589170172940363
The Dolphin,Pub,51.369361,-0.19472
Red Lion Public House,Beer Garden,51.3678738048272,-0.1945787095165549
The Crown Sutton,Pub,51.368160163337826,-0.1953466236591339
The Prince Regent,Pub,51.370468,-0.194831
Butterchurn,Bar,51.36952045094591,-0.18014686348703388
The Robin Hood,Pub,51.368523,-0.172664
The Sun,Pub,51.367073003483895,-0.16422500425445996
Lord Palmerston,Pub,51.368899240901506,-0.16186481228260163
Rose And Crown,Pub,51.36858313037125,-0.15502350709630597
The Railway Tavern,Pub,51.369221,-0.165909
The Plough,Pub,51.3676332944072,-0.13208872162835586
Harvest Home,Pub,51.369106,-0.12633204460144043
The Waddon Pub,Pub,51.368341300543364,-0.11449690243120686
Hare & Hounds,Pub,51.37123390509952,-0.11729021397414867
Loop Lounge,Nightclub,51.37272807308211,-0.11853515719403232
The Ludoquist,Gaming Cafe,51.37153038040552,-0.1003305710260288
The Skylark (Wetherspoon),Pub,51.3661889967684,-0.09910809365004339
The Spreadeagle,Pub,51.37239980648064,-0.0999907352758226
The Green Dragon,Pub,51.37171968746061,-0.10043536319543704
The Crown & Pepper,Pub,51.36911896641011,-0.09955034051567693
The Milan Bar (Lloyds No.1 Bar),Pub,51.37309025258769,-0.10015518595809504
Dog & Bull,Pub,51.373081096937405,-0.10148720048776085
Art & Craft,Beer Bar,51.372522,-0.101173
The Odd Shoe,Pub,51.37331860365068,-0.09879344844844366
Bad Apple,Nightclub,51.37340265763354,-0.09930829526835787
Ruskin House,Event Space,51.36723145612324,-0.0962904633201228
Bulls Head,Pub,51.36961553923054,-0.10116380023125468
Market Tavern,Pub,51.371873,-0.100766
Scream lounge,Bar,51.36661088376932,-0.09938770466605686
cafe havana,Other Nightlife,51.36666126805345,-0.0993629065264507
Club 88 degrees,Nightclub,51.371731,-0.099383
Dice Bar and Club,Nightclub,51.372453579847864,-0.10012070155360593
The Dutchie Restaurant & Cocktail Bar,Caribbean Restaurant,51.3734332,-0.1000483
Memory Box,Cocktail Bar,51.370746,-0.100339
Luna,Nightclub,51.372967,-0.100096
Mist Lounge,Cocktail Bar,51.36905770803493,-0.09978353977203369
The Edge,Pub,51.36757493019104,-0.099044
Brgr&Beer,Burger Joint,51.372336275901574,-0.1011514663696289
The Roxbury,Nightclub,51.37297597560096,-0.10011629424323425
South Beats,Wine Bar,51.36839510000001,-0.099519
The Granaries,Nightclub,51.372574,-0.099869
Joe Bananas,Nightclub,51.373044,-0.100128
Bar Red Square,Pub,51.37159286866363,-0.1002712232779783
The Surrey Cricketers,Pub,51.368047416028624,-0.10152030606775458
Soulful Cellar,Bar,51.371072,-0.09915
Ananda Lounge,Nightclub,51.37315,-0.102338
Studio 69,Gay Bar,51.369119,-0.096425
The Cantina Bar Croydon,Bar,51.37112400339111,-0.10040044784545898
Goose on the Market,Pub,51.37186128789334,-0.10060691612110649
Project B,Bar,51.373682487411614,-0.10052998931925267
Rileys,Sports Bar,51.3736963806163,-0.10191935096765072
The Ship,Pub,51.37205153127969,-0.10040459492967263
Graneries,Nightclub,51.37358563306449,-0.09998142541099576
The Royal Standard,Pub,51.37008046367005,-0.10141821881421303
The Crown,Pub,51.3738180145079,-0.05425722921966789
The Surprise,Pub,51.36796926536853,-0.053762197494506836
The Sandrock Hotel,Pub,51.366807114947264,-0.05260884761810303
The Goat,Pub,51.36990543195417,-0.03107778578866766
The Warren,Pub,51.37058788348152,0.008660958990710978
Two Doves,Pub,51.372750741360335,0.039560871184525545
The Maxwell,Pub,51.37196427824269,0.0909313821170439
Orpington Liberal Club,Bar,51.37309309274106,0.09651660919189453
The Plough Inn,Pub,51.36844083952005,0.2098452735647017
The Malt Shovel,Pub,51.36727234248801,0.21071030339183403
The Five Bells,Pub,51.36920716589879,0.21407195177135965
Eynsford Riverside Club,Bar,51.3684191,0.20929469999998673
Castle Hotel,Pub,51.36786209422991,0.21219491958618164
The Rising Sun,Pub,51.366572,0.275933
George Inn,Pub,51.3693457223808,0.36008119583129883
White Hart,Pub,51.373401014658654,0.45812990688490285
The White Horse - Borstal,Pub,51.373301,0.485743
North End Tavern,Pub,51.376534,-0.237131
Rumours,Bar,51.37754600247885,-0.23832323000076341
Lord Nelson pub,Pub,51.37985570844425,-0.2184439749854914
Royal British Legion,Pub,51.37781289959371,-0.17093709078474914
Brudna Willa W Londynę,Hookah Bar,51.38144579778578,-0.17304928353746893
The Red Lion,Pub,51.378301,-0.157741
The Terrace,Bar,51.37877,-0.161958
Croydon Retail Distribution Depot,Brewery,51.37640178231189,-0.12830217344080624
Bedford Tavern,Pub,51.37876408593697,-0.09536380303010367
The Old Fox And Hounds,Pub,51.3782291265089,-0.10291670472748561
Davy's Wine Vaults,Wine Bar,51.37885356710621,-0.10350734126868967
Babylon Inn,Pub,51.378773107198526,-0.10243505472338467
Pock,Lounge,51.37994386648994,-0.10444820060422985
Lansdowne Lounge Bar,Hotel Bar,51.37622537771332,-0.09791208185689773
The Oval Tavern,Pub,51.37821703801175,-0.08757374051557965
The Alma Tavern,Pub,51.379374,-0.080546
The Builders Arms,Pub,51.37971196313511,-0.08610636503212535
The Orchard,Pub,51.37898347919244,-0.08877799978000872
Ruskin's,Bar,51.37867650010887,-0.07939039790486606
aladdins's,Lounge,51.37982412575921,-0.08802218906693872
Claret & Ale,Pub,51.380007373423545,-0.07377396182731018
Addiscombe Sports And Social Club,Pub,51.38309299245881,-0.07351402096485032
The Railway Hotel - Ember Inns,Pub,51.380359418257406,-0.013292493194962873
Ex-Blues Sports Club,Sports Bar,51.37809990573933,-0.005765462110035874
Jonathan faint photography studio,Strip Club,51.37756716027055,0.005061996793093523
Th Great British Carvery,Pub,51.38346869097903,0.002414284503605844
The George,Pub,51.379378523697476,0.01842424351900265
Tom Fullery,Pub,51.380119,0.024514
Slug & Lettuce,Bar,51.38205,0.030079
The Cricketers,Pub,51.381109,0.09918
The Beech Tree,Pub,51.382167999696996,0.11968933544351679
Chequers,Pub,51.382046692748254,0.21923303604125974
Bfestival,Other Nightlife,51.382838,0.29305
Railway Inn,Pub,51.382698703408785,0.37876017401066325
The Cock inn,Bar,51.37961021630736,0.3895925090140683
The Doig's Head,Bar,51.37709986996634,0.45928616537996153
The Waters Edge (Hungry Horse),Pub,51.37920318082383,0.4750583845896943
Mango Joes Bar,Bar,51.37977664875218,0.4761672019958496
Morden Brook,Pub,51.3910616539285,-0.22189455681419296
Kalahari Kiwi,Beer Garden,51.38928621547123,-0.19158494290853728
The Goat,Bar,51.388999,-0.158837
The Crown Of Mitcham,Pub,51.389046,-0.15879047
Saints & Sinners,Pub,51.387816,-0.110975
The Horseshoe,Pub,51.39360208258392,-0.11479318141937256
Green Dragon,Pub,51.39004786731239,-0.11243820190429688
Pelican Rum Bar,Cocktail Bar,51.388194,-0.115084
Pawsons Arms,Pub,51.393048,-0.096649
Lion,Pub,51.391217,-0.099954
Selhurst Railway Club,Bar,51.392513865099346,-0.0885234399957748
The White Horse,Pub,51.388929,-0.090731
Two Brewers,Pub,51.388556,-0.089886
The Gold Coast Bar & Restaurant,African Restaurant,51.39177138157308,-0.06633652235879549
Joiners Arms,Pub,51.386664598739785,-0.07096237670583694
Hazelnut Fleurs,Wine Bar,51.38963773258861,-0.05842475369080803
Heath Hayes Conservative Club,Pub,51.387455,0.009125
The Chatterton Arms,Pub,51.392474368254724,0.035708775463035636
The Chequers,Pub,51.38953482,0.047394
international goodfellas bromley,Bar,51.38781233017952,0.05102455072726874
The Daylight Inn,Pub,51.38951761802021,0.07525550567596341
One Inn the Wood,Pub,51.390172181557176,0.07390679904646576
Desperados,Mexican Restaurant,51.389903,0.074922
fighting cocks,Pub,51.39145457305465,0.24011079549693656
The Bull Horton Kirby,Bar,51.391535079706074,0.24421407802777956
The Leather Bottle,Pub,51.390706300735474,0.3988015651702881
Meadow Rooms,Lounge,51.390729,0.397262
temple farm workmens club,Bar,51.38796729825702,0.47943743214644235
Central Ward Residents Club,Other Nightlife,51.39902516273776,-0.2075515609224318
Ganleys Irish Bar,Bar,51.402435595368814,-0.1938727642079411
The Royal Surrey,Pub,51.402843618438325,-0.19197682420266962
Sutton Arms,Pub,51.400189759158344,-0.19096363496587676
Hangover Central,Beer Garden,51.399593425311835,-0.18967421812629467
Casuarina Tree,Bar,51.397877,-0.17232724
The Windmill,Pub,51.401742571862634,-0.16081634408571294
Rejez,Pub,51.40127041234148,-0.1182615268713511
Metzi Bar,Lounge,51.402877,-0.118103
Eel Pie Club,Nightclub,51.39789056479398,-0.1179768222244247
The Flora Sandes  (Wetherspoon),Pub,51.39850984812282,-0.09952964962840614
Thomas Farley,Pub,51.39844512939453,-0.09587100148200989
Railway Telegraph,Pub,51.39823747224751,-0.10076682353704054
The Clifton Arms,Pub,51.39648150375334,-0.08600037704733748
Crystals Night Club,Nightclub,51.39828062694981,-0.08658905415980436
The Albert Tavern,Pub,51.39751237639974,-0.06641697739004265
The Albion,Pub,51.399574207555546,-0.07455420604431512
The Prince of Wales,Pub,51.397132,-0.0739
The Jolly Sailor,Pub,51.39938471201949,-0.0746685444959032
The Portmanor,Pub,51.39886558055878,-0.07313311100006104
The Elm Tree,Pub,51.39864653870314,-0.04503799601423721
Aces Wine Bar,Bar,51.39994585666614,0.004070775832202691
The Richmal Crompton (Wetherspoon),Pub,51.399678898406954,0.016967418473892874
Rumour Bar and Lounge,Bar,51.39954548683354,0.016569925268797
Tigers Head,Pub,51.397926807403564,0.02056717872619629
Ravens bar and grill @ Bromley FC,Bar,51.398772,0.017727
IGF International Good Fellas,Nightclub,51.39958645742824,0.01672972147916338
Lloyds Pub,Pub,51.39897673699815,0.01628429945901534
Bricklayers Arms,Pub,51.39901957207582,0.03176002029485646
The Lord Holmesdale,Pub,51.398950113170976,0.03195659106311979
The Queen,Bar,51.40216724300665,0.24929576652342067
The Bridges,Bar,51.401294633941,0.24527625409928577
The Jolly Miller,Pub,51.403475,0.247231
The Kings Arms,Pub,51.401662213504565,0.3558731558171478
Inn On The Lake,Hotel Bar,51.402950786694916,0.4075320812229884
Three Crutches,Pub,51.39933106425382,0.4540056624307131
Park tavern,Bar,51.39808111187945,0.46046018600463867
Coach & Horses,Pub,51.39854939930897,0.4863995160974861
Raynes Park Tavern,Pub,51.409587867609794,-0.23011872176771117
The Cavern Pub,Pub,51.4097014861614,-0.23394522894311195
The Edward Rayne (Wetherspoon),Pub,51.40971901205347,-0.2286946874175395
Raynes Park Sports Bar,Sports Bar,51.408976,-0.228885
Raynes Park Social Club,Bar,51.40836160664242,-0.23809432983398438
The Edward Tavern,Pub,51.40990522247856,-0.22137105096593246
48 Sydney road,Beer Garden,51.409212,-0.219961
The Leather Bottle,Pub,51.41107958580372,-0.20909898563996945
Prince of Wales,Pub,51.40893825705839,-0.19434930268335693
The Trafalgar,Pub,51.41247992760844,-0.1874087662018967
Wimbledon Brewery,Brewery,51.41315176513445,-0.17435118474840197
Gardeners Arms,Pub,51.410304624500135,-0.16187348253331277
The windmill public house,Pub,51.40903978368079,-0.161104535671822
poppy club,Pub,51.40858459472656,-0.16503679752349854
The Poppy Club,Pub,51.40637969970703,-0.16167283058166504
Mitcham Mint,Pub,51.412865,-0.14213663
Reform Tavern,Pub,51.40707850065212,-0.09963825075253614
Anerley Arms,Pub,51.41274479910761,-0.06613131283943309
Goldsmiths Arms,Pub,51.41349993484476,-0.05211414501091546
The Moon & Stars (Wetherspoon),Pub,51.4128620370026,-0.05086935452893012
The Maple Tree,Pub,51.411988677552145,-0.05784988403320312
Golden Lion,Pub,51.411564858551245,-0.058677565105092803
Penge & District Trade Union and Social Club,Bar,51.409588,-0.050858
Ben's Yard,Gay Bar,51.413409,-0.057033
The Penge Conservative Club,Bar,51.412327,-0.037568
West Beckenham Conservative Club,Social Club,51.40855855330238,-0.041404677321534925
Ye George Inn,Pub,51.40733404010343,-0.027588811748775366
Kelsey House Bar & Kitchen,Cocktail Bar,51.40767264938668,-0.025916895945039615
Bridgebar & The Bridge Nightclub,Nightclub,51.41083592071575,-0.025096705482352922
Burger & Bubbles,Burger Joint,51.411158,-0.025094
Slug & Lettuce,Bar,51.40754463215789,-0.027259096048606168
La Rascasse,French Restaurant,51.40792254703971,-0.025351797615625764
Two-Ten,Bar,51.406715,-0.028390847
Bocca Social,Bar,51.40843,-0.025294572
Time,Bar,51.41120274918952,-0.025830110143123572
Hop and Rye,Pub,51.41084102306282,0.010269541463529422
The Beech tree,Pub,51.41085642436355,0.010161013366229299
Casa Da Cachaca Brazilian Party,Pub,51.40879,0.010868
Bromley United Services Club,Other Nightlife,51.40953927092689,0.0104118012101661
Freelands Tavern,Pub,51.41020337873729,0.02454536384878194
The Railway Tavern,Bar,51.40790174662663,0.016724847549452544
The Red Lion,Pub,51.40997241018873,0.021675954062915705
Crown & Anchor,Pub,51.407753,0.021074
Anglesey Arms,Pub,51.40870291155604,0.020846128463745117
White Horse,Pub,51.40975305955512,0.020805844216176626
Prince Frederick,Pub,51.40800065078727,0.01903455639512328
Rack City,Hookah Bar,51.41219,0.01755
Bar du Vin,Bar,51.407126,0.016392
The Ramblers Rest,Pub,51.408749192486546,0.06259517271430465
Imperial Arms,Bar,51.40919013530581,0.06218032848274448
The Tigers Head,Pub,51.409066627376426,0.07434048255817127
Greyhound,Bar,51.4106,0.235712
The Millis Brewing Company,Brewery,51.410275558144754,0.25920867919921875
Istead Rise Community Centre,Other Nightlife,51.40863041899942,0.3512486687882187
The George,Pub,51.411357336536646,0.377582248660673
sir john falstaff,Pub,51.411155547420556,0.4588589072227478
The Swan,Pub,51.420817329398496,-0.22074898551550906
Wimbledon Village Club,Speakeasy,51.423199,-0.216625
Loxley's Restaurant & Wine Bar,Restaurant,51.4227812,-0.2173417
The Alexandra,Pub,51.42192515940698,-0.20818094936729103
The Wibbas Down Inn (Wetherspoon),Pub,51.41907746299677,-0.20276459371718267
Prince of Wales,Pub,51.42061205352621,-0.20633881445789418
The Old Frizzle,Bar,51.419625397629524,-0.20224600621880548
Garratt And Gauge,Pub,51.419613,-0.20547432
The Pod Bar,Nightclub,51.41930378281709,-0.20089840664157324
The Hand & Racquet,Pub,51.42172754363928,-0.20807151966130005
Berties Bar,Bar,51.42038898693611,-0.20642564537482225
All Bar One,Bar,51.42229051343989,-0.20864315830379823
601 Queens Road,Bar,51.420625,-0.205372
Smash,Sports Bar,51.419501,-0.201709
Suburban Bar & Lounge,Bar,51.41972327183463,-0.20574002698493138
hmvcurzon Wimbledon,Movie Theater,51.42049475630864,-0.20499336679883948
The Loft,Pub,51.421949,-0.208119
Debroy's,Karaoke Bar,51.416489,-0.208179
Graffiti Bar,Cocktail Bar,51.421083097437325,-0.2066759226335162
The Prophecy,Cocktail Bar,51.420719146728516,-0.20374634861946106
Reds Wimbledon,Bar,51.4194771,-0.2016451
Po Na Na Souk Bar,Bar,51.41956568608986,-0.20177565851177295
Blueboard,Karaoke Bar,51.418975830078125,-0.20012912154197693
Edwards,Bar,51.41962281091852,-0.20551323379329306
Herbert Road,Beer Garden,51.418864557448664,-0.20435128994802662
Nirvana @ Suburbia,Nightlife Spot,51.4197487,-0.2070536
The Sound Lounge,Coffee Shop,51.420183,-0.204473
Edward Pub Wimbledon,Pub,51.42023555274091,-0.20558911193695378
Suburbun Rock A Jill,Nightlife Spot,51.419613,-0.205872
Slug & Lettuce,Bar,51.42305309973846,-0.2039806227973745
Tom's,Lounge,51.42097473144531,-0.20978669822216034
The Sultan,Pub,51.41851015376454,-0.18516096705209686
The Garden Shed,Pub,51.42019690443749,-0.18702209466497297
Tunnel 267,Nightclub,51.41948,-0.194824
Lambourne Bar & Grill,Gastropub,51.419383844931936,-0.1952570730579039
"Moons, Kenton",Bar,51.416874,-0.192605
the garden shed garden,Brewery,51.420414,-0.186873
The Charles Holden,Pub,51.4179573958635,-0.17841780087608047
Royal Standard,Pub,51.418384638833636,-0.1779700583567777
Venus Bar,Bar,51.41772848421826,-0.17797482664902223
CRC,Bar,51.420792247889786,-0.17264322017181288
Kobra HQ,Lounge,51.421704,-0.174615
Gorringe Park Pub,Pub,51.41951738407002,-0.16161404257559095
Ramble Inn,Pub,51.422665,-0.160367
The Ruby Lounge,Bar,51.420977643286925,-0.15684932847731542
The Golden Oak,Pub,51.42067823369066,-0.16298326430308996
Club 47,Brewery,51.41716365869295,-0.16204489688142293
The Max and Social,Beer Garden,51.421255,-0.164393
CIU Club,Bar,51.417152062441914,-0.16190168575285
The Bull,Pub,51.41935395201309,-0.128207901376636
The Mere Scribbler,Pub,51.421402,-0.12915507
The Rabbit Hole,Pub,51.42200012947888,-0.12980249338415736
Conservatoire de St.Reatham,Lounge,51.419149,-0.132678
Safari,African Restaurant,51.420816654590205,-0.12899814339328156
The Bank,Bar,51.42167854670041,-0.12905095343419293
The Front Room Bar,Bar,51.417589,-0.127266
Essex Grove Casino,Speakeasy,51.420517,-0.09823
Bar 12a,Bar,51.419568,-0.095875
Westow House,Pub,51.419978035732534,-0.078612599028305
The Faber Fox,Pub,51.419807,-0.081638
The Sparrowhawk,Gastropub,51.419696160821815,-0.08294745969340683
The White Hart,Pub,51.4170466847064,-0.08147704387418578
The Alma Pub,Gastropub,51.41723256451516,-0.08112167145480738
Walker Briggs,Bar,51.41772,-0.080683
Exhibition Rooms,Cocktail Bar,51.41983311853738,-0.0794133585777077
Joe,Coffee Shop,51.41904,-0.07949
Cocktail Embassy,Cocktail Bar,51.419839,-0.079358
joe lounge london,Bar,51.419067998040994,-0.07951408624649048
Pierre's Bar,Bar,51.419861,-0.081859
Guatama,Bar,51.420274,-0.084596
Holly Bush,Pub,51.41973853111267,-0.08296
The Havana House,Cocktail Bar,51.419838901971964,-0.08192095363982912
Railway Bell,Pub,51.422498905877795,-0.08217507789484015
Numidie Cocktail Bar,Cocktail Bar,51.419777,-0.080613
Bar Bella,Bar,51.419888,-0.08044381
Royal Albert,Pub,51.41973430373875,-0.08114427724344195
Railway Bell,Pub,51.42253487668103,-0.08762151565656098
The Bridge House,Pub,51.41808082341665,-0.060610855389504406
The Alexandra,Pub,51.41732433155454,-0.05111840379153872
West side,Pub,51.421654,-0.054598
Need More Points,Gay Bar,51.422199,-0.037969
HSBC Sports And Social Club,Athletics & Sports,51.417413381857834,-0.03690390867717804
Goals Soccer Centre,Event Space,51.421117,-0.029997
Smush HQ,Strip Club,51.419745,0.009052
Yolo Lounge,Wine Bar,51.420853,-0.0011868775
Sundridge Park Wmc,Bar,51.42018360368759,0.020076804306235433
The Queens Head,Pub,51.41767124594181,0.06819498854216136
Gordon Arms,Pub,51.41960325179379,0.06879329681396484
Beaverwood Club,Bar,51.41968424106297,0.09015478427479297
Conservative Club,Pub,51.41974784561412,0.10995425898580667
The Seven Stars,Pub,51.41781012704896,0.11994838714599608
3 Süpürge,Beer Bar,51.42082,0.13822027
The Roebuck,Bar,51.4165153503418,0.16827599704265594
The Chequers,Pub,51.418175326404594,0.23986886429183293
The Ship Inn,Pub,51.415986,0.320404
Sports Cafe,Sports Bar,51.42159,0.3742316
gravesend tennants club,Bar,51.42098863624414,0.38383434664045546
Regans Bar,Pub,51.419656,0.401051
Di'Zain,Wine Bar,51.427164319999996,-0.20054691000000005
Barcia,Cocktail Bar,51.42716677000001,-0.20046203750000002
The Selkirk SW17,Pub,51.43025701790907,-0.16939234438240794
SU Bar,Bar,51.42762674556905,-0.17514006795758527
The Vicarage,Speakeasy,51.430508,-0.173249
Willie Gunn,Bar,51.42912798,-0.1732523
St George's Students' Union,Bar,51.427708998131905,-0.1727295074333977
Prince Of Wales,Pub,51.43261221780832,-0.17995230260208117
The Secret Bar,Cocktail Bar,51.429216,-0.165397
Unwined,Wine Bar,51.42886462643402,-0.16609788592148936
Graveney Gin,Bar,51.42884906970241,-0.1661232119743175
Pooja Shisha Lounge,Hookah Bar,51.43201459683817,-0.16392571266459205
Bindlesticks,Wine Bar,51.428852,-0.165945
Toot Suite,Pub,51.429065483336814,-0.15653390773757492
Lebanese Valley/Tooting Majlis,Lounge,51.42928,-0.1655
Mayfair Tavern,Bar,51.42842045678448,-0.16136249502347327
Pratts and Payne,Pub,51.43028330811034,-0.12989958685252906
The Manor Arms,Pub,51.42822872170311,-0.1322976905222598
Art & Craft,Beer Store,51.42761,-0.131206
The Holland Tringham (Wetherspoon),Pub,51.43010145479554,-0.12991750795455184
Leigham Arms,Bar,51.43006345641588,-0.12718812799382584
The White Lion,Pub,51.43073651088392,-0.12955919744446656
Hix & Buck Pop Up Shop,Wine Bar,51.427775,-0.130727
203 Restaurant,African Restaurant,51.42776509488264,-0.1309347152709961
Chix And Buck - A New Wine Culture,Wine Bar,51.42663754756489,-0.13124300270405684
Fudge & Brownies Hood,Gay Bar,51.430424,-0.123831
Chariots,Sauna / Steam Room,51.428286868061,-0.13108491897583008
The Great North Wood,Pub,51.43151405622972,-0.1040016386063303
Scandals,Nightclub,51.429103,-0.101537
Hope,Pub,51.430978,-0.10191857814788818
The Horns,Pub,51.432124696194414,-0.10385304640920101
Horns Tavern,Pub,51.430621,-0.098821
Norwood Hotel,Pub,51.431535093259754,-0.10401244791227421
The Paxton,Pub,51.42787978570221,-0.08616832086573292
Gipsy Hill Brewery,Brewery,51.428409576416016,-0.08944570273160934
London Beer Factory,Brewery,51.42850747108305,-0.08873026010402106
The Two Towers,Pub,51.427006,-0.088998
Dulwich Woodhouse,Pub,51.43279402094275,-0.0727104763248521
Cannon Yard Geography,Bar,51.4295909,-0.0656154
The Talma,Pub,51.43082499948638,-0.06470444453198841
brick lane vibe bar,Bar,51.43154701716656,-0.0702258329851546
The Greyhound,Pub,51.426966,-0.055493
The Pavilion,Bar,51.42672868213284,-0.05506245467540947
161 Food + Drink,Bar,51.43096606501189,-0.05970744803522345
The Fox Kirkdale,Pub,51.430923,-0.059982
Fox's  (Fox & Hounds),Pub,51.430060615071675,-0.057753435015643964
Zanzibar Bar/Night Club,Nightclub,51.42856145824702,-0.06014823351114341
The Woodman,Pub,51.431572554780075,-0.06004798951905111
Zanzibar,Nightclub,51.426718,-0.05358
The Bricklayer's Arms,Pub,51.43304797166723,-0.05893392601211515
Prince of Wales,Pub,51.433685620495304,-0.04238537616089575
The Bell,Pub,51.429199,-0.037217
The Fellowship,Pub,51.4325,-0.020624511
The Baring Hall Hotel,Pub,51.43073727121925,0.020990096461220256
armless legs,Bar,51.4263400352779,0.019921388550959374
Gastgezin,Nightclub,51.431623,0.034928
Prince of Wales,Bar,51.433583,0.04805
The Charcoal Burner,Pub,51.43068458925846,0.08456681537334136
Glam Nightclub,Nightclub,51.43180731161776,0.07806554819507038
The Bank Club,Nightclub,51.430656346980236,0.08080077470016066
The Horse and Groom,Pub,51.43075183129252,0.18358111381530762
Leyton Cross Social,Bar,51.43033,0.186958
Orange Tree,Pub,51.43380024163564,0.21527409553527832
The Four Lymes,Pub,51.428762,0.217048
Royal Standard,Bar,51.43000504,0.27167654
The Spring River,Pub,51.431947,0.316757
The Six Bells,Pub,51.432807,0.347381
Paddys Pub Gin Club,Cocktail Bar,51.432066,0.351417
Millers Cottage,Bar,51.430918,0.353122
Earl Grey,Pub,51.43310295452434,0.3485262393951416
The Gin Factory,Hookah Bar,51.433187,0.353635
Fleet Leisure,Sports Bar,51.43091732440469,0.3531224342861278
The Woodlands (Beefeater),Pub,51.43184038148886,0.36393174089890595
Portland Lodge,Hotel Bar,51.432918,0.369182
Echo,Bar,51.43124323271291,0.3753354400102832
The Echo Pub,Pub,51.43151102655865,0.37520885467529297
Down South,Bar,51.442787,-0.220592
Cerveceria O Vintesete,Beer Garden,51.44271442446392,-0.21561125217728694
Maya's Kingdom,Bar,51.44257050104138,-0.22155117081078599
The Wandle,Pub,51.442840072921754,-0.18905597969015156
The Leather Bottle,Pub,51.436864325899165,-0.18740190508624915
Halfway House,Pub,51.44172946582752,-0.18745009386371975
Hallowed Belly,Café,51.439820390798594,-0.1867547855543151
Ben's Canteen,Burger Joint,51.439919872394526,-0.18689516925538813
"Earlsfield, The",Lounge,51.442232982031285,-0.1880501737364575
The Country House,Pub,51.442009704334865,-0.1889576017856598
Graffiti,Cocktail Bar,51.44065142907797,-0.18687763506322333
Hallowed Belly,Restaurant,51.43981,-0.18666297
The Fog,Pub,51.442173,-0.188641
Valhalla Rave,Other Nightlife,51.441074,-0.189768
Bar 366 Earlsfield,Cocktail Bar,51.44173523354218,-0.18757531290836008
The Roof Terrace,Speakeasy,51.439572,-0.187193
Creepy Stairs,Nightclub,51.438883,-0.188543
Excelsior Club,Nightclub,51.44163172468512,-0.1541628746133139
PJ's,Bar,51.44109503225579,-0.15490339784532606
The Exhibit,Bar,51.44155663396839,-0.15434503555297852
The Bedford,Pub,51.442756201782956,-0.1495687146130651
The 3 Monkeys Cocktail Bar,Karaoke Bar,51.44287357395945,-0.1493275819338353
Dunn's Wine And Beer Discotheque,Bar,51.441936,-0.143805
Purl popup @ The Bedford,Cocktail Bar,51.44280710283301,-0.1492354077989118
R & G's H.Q.,Gay Bar,51.443425672321474,-0.14628661493134096
graffti bar,Cocktail Bar,51.4428377374267,-0.14939572556816494
Simmons,Cocktail Bar,51.442945,-0.14915
The Balham Lounge,Wine Bar,51.442109,-0.149434
Purl pop up,Cocktail Bar,51.442774,-0.149449
hood,English Restaurant,51.43983876618372,-0.12575597502412894
Streatham Wine House,Wine Bar,51.440408,-0.125519
Bar 61,Tapas Restaurant,51.44008963271476,-0.12564445250952555
Exhibit B,Bar,51.43712,-0.12721482
The Horse And Groom,Pub,51.43641112754285,-0.12781881994485708
The Hamlet Cocktail Bar,Cocktail Bar,51.437492,-0.12738816
The Hamlet,Restaurant,51.43768986147213,-0.1271675177370006
The Five Bells,Pub,51.43622415526114,-0.12794959714032336
Guy's,Gay Bar,51.437252,-0.12728
Porky’s Wine Bar,Wine Bar,51.438587,-0.127621
Bar Devanney,Bar,51.440128,-0.134135
Mint,Bar,51.43697767119475,-0.12745449172595366
Belle's Boudoir,Nightclub,51.440239451647564,-0.11113753897836899
The Railway Tavern,Pub,51.44008159696512,-0.10537352399720207
Trinder Towers,Speakeasy,51.441029,-0.101611
Lloyd Manor,Gay Bar,51.44006,-0.096226
The Alleyn's Head,Pub,51.4370320578446,-0.08845891916693839
The Capitol (Wetherspoon),Pub,51.43923768280335,-0.054796199234285574
Sylvan Post,Pub,51.43807999024222,-0.054463892697830696
The Signal,Pub,51.43947639124264,-0.0539585509261542
All Inn One,Pub,51.43847264719822,-0.05247711894854385
The Bird In Hand,Pub,51.438097,-0.054444
The Perry Vale,Bar,51.439008483706075,-0.0526160176700453
The Church,Speakeasy,51.43956080222036,-0.05803677777538341
Selar,Event Space,51.438413439045235,-0.05390167236328125
The Foresters,Pub,51.4382907897843,-0.05242169463138422
The Hill,Bar,51.43766947931094,-0.0545237907604742
The Lodge,Whisky Bar,51.440682,-0.059172
The Tippler,Wine Bar,51.440682164161394,-0.05917344003011086
Forest Hill Hotel,Pub,51.44129056,-0.05146424
The Honor Oak,Bar,51.443057301489375,-0.042404552577622726
Caccahia,Speakeasy,51.441713,-0.04017
The Asare Lounge UK,Bar,51.443083,-0.042513
The Asare Beer Garden,Beer Garden,51.443159,-0.042976
The Catford Cricket and Sports Club,Bar,51.44156,-0.020158477
Shafi's shack,Brewery,51.44114964902217,-0.029710984620188282
Host Family,Hookah Bar,51.43793842181576,-0.006509374159171514
The Crown Tavern - Young's Pubs,Pub,51.44365486894052,0.01758491931332534
The Royal,Bar,51.439189638158894,0.05096293030225213
Goals Soccer Centre,Event Space,51.44336389999999,0.0624687
Loopy Lous Streetdance,Nightclub,51.439462,0.066621
Ye Olde Black Horse,Pub,51.43722775020671,0.09845434247588668
The Gin Hand,Cocktail Bar,51.438939,0.0918441
The Albany Public House,Pub,51.4360769918626,0.12623744702546977
Millers Arms,Pub,51.43604106,0.12614283
Albany Hotel,Pub,51.4361831,0.1264051
bridge lounge and dining room se1,Bar,51.440267,0.144296
t buske naar ename,Beer Garden,51.44356212156236,0.13993910432119935
Tanyard Lane,Bar,51.441736,0.149438
The George,Pub,51.4417555295627,0.1504291288194399
King's Head,Pub,51.44173036793814,0.1497853372239225
Millers,Bar,51.44205660445354,0.1508026893154313
The Coach And Horses Bexley,Pub,51.43842816352844,0.1522904634475708
The Maypole,Beer Garden,51.4367128490018,0.171173131093542
Fleetdown Football Club,Other Nightlife,51.440072094157955,0.2023802118132644
Mind Your Head Pub,Pub,51.443486,0.216424
Jo Jo's Bar,Nightclub,51.44232408753863,0.2159582794784082
The Ivy Leaf,Pub,51.44116469135837,0.2244712332098586
Blue Pocket HQ,Nightclub,51.439682,0.227272
Tiger Pub,Bar,51.44359973069217,0.22728627838751822
Browns,Bar,51.43724214412425,0.270498548726755
Charcuterie Bar,Wine Bar,51.43838668752181,0.27191162109374994
Santa Fe,Sports Bar,51.439911499350096,0.2702808380126953
Sports Bar,Bar,51.437639594078064,0.2788907289505005
The Blue Anchor Pub,Pub,51.441611863272534,0.30779477657697063
Zone Entertainments,Karaoke Bar,51.4429899,0.3008757
The Sun,Pub,51.44054973350185,0.30613872549154075
Ye Olde Coach & Horses Inn,Pub,51.443323519393566,0.336103452374729
Rose Pub,Pub,51.43963086281934,0.35370056303868347
The Invicta Bar,Beer Bar,51.440393,0.369124
The Goose,Pub,51.44203531373885,0.37048622092953676
The Compass Ale House,Pub,51.43966653961398,0.37015581681641396
The Robert Pocock (Wetherspoon),Pub,51.44230708790975,0.3689176909014533
Prosecco Wine Bar,Wine Bar,51.44306796557701,0.3691256046295166
The Trocadero,Pub,51.441381780967546,0.3692410658900938
Somerset Arms,Bar,51.44194463125662,0.3652906272673239
The Three Pillars,Pub,51.439075,0.367496
D:Reams,Bar,51.441237,0.369142
Railway Bell,Pub,51.441899275040036,0.36668302563254035
Whispers,Bar,51.44000610079847,0.37075961594389045
Darnley Arms,Bar,51.437192,0.365928
R Bar,Bar,51.441962461895855,0.3695670752014017
Bat and Ball,Pub,51.43646908045167,0.36679054587011767
the wheattsheaf,Bar,51.44236373901367,0.3653208017349243
Man Of Kent,Pub,51.438277,0.367002
Manor Shades,Bar,51.44113113761859,0.3696374161564803
Bar 24,Bar,51.441138,0.368113
The Foresters Arms,Bar,51.44170341937955,0.37076061550461276
TJ's,Pub,51.44201599450167,0.37519307427122617
The Pilot,Pub,51.4426136,0.3752387
The Jolly Drayman,Bar,51.44031364723539,0.3748107375189113
The Peacock Gravesend,Pub,51.437908092694535,0.37863792859743506
the Black Rose,Pub,51.44,0.3739
The Waterloo Pub,Pub,51.43825232931075,0.37462149077833173
The Canal Tavern,Pub,51.44232125823566,0.3824889036150653
Milton Ale Shades,Pub,51.43869624966988,0.39057446038647997
the ship and lobster,Bar,51.440627574920654,0.4049438238143921
King's Head,Pub,51.450016394584765,-0.24087292060436735
The Angel,Bar,51.450225650368964,-0.24061404969425954
Green Man,Pub,51.45330966265667,-0.22133446995427203
Park Tavern,Pub,51.450479318158216,-0.1992233527484017
The Earl Spencer,Pub,51.448266494569,-0.1991955221811316
Golden Lion,Pub,51.449630099009894,-0.19923998201504178
Vida Loca,Bar,51.44847984122029,-0.20682844149604962
CIU Club Southfields,Bar,51.447001,-0.201692
Jolly Gardeners,Pub,51.446951572387604,-0.18943758092993906
Garratt Tavern,Pub,51.452934,-0.191118
The Old Sergeant,Pub,51.45149284476593,-0.19037312640644974
The Grosvenor Arms,Pub,51.44730813727277,-0.18945384108034788
Tir na nOg,Pub,51.45254942698838,-0.1909947395324707
Grosvenor,Pub,51.447366,-0.189429
Charlie's Bar,Bar,51.45046943999999,-0.189914
County Arms,Pub,51.450169592826356,-0.17419477273312364
Le Gothique,Pub,51.45347635136694,-0.1745367662461371
W.P.O.S.C. You Know It Makes Sense!,Bar,51.44823455810547,-0.17820976674556732
The Nightingale,Pub,51.450142082029906,-0.15795098481822417
Nightingale Wines,Wine Bar,51.45073203899104,-0.15629600123522258
The Avalon,Gastropub,51.45071083434107,-0.14774105703966903
Gigalum,Bar,51.45368207465194,-0.1465293876470647
The Devonshire,Pub,51.44692192154592,-0.1488986699944405
Brick & Liquour,Cocktail Bar,51.451563,-0.147696
Cavendish Parade,Residential Building (Apartment / Condo),51.45384812689203,-0.14641910791397095
déjà brew,Beer Bar,51.44672,-0.147314
Sequoia,Hookah Bar,51.453886961983756,-0.14655877435992917
Ruta 40 Headquarters,Speakeasy,51.450346,-0.144022
St Oliver Plunkett Club,Bar,51.450036570065535,-0.14961377317356217
Prince Of Wales,Pub,51.44654960766159,-0.1458279005089399
Herbs and Burgs Brewhouse,Brewery,51.44993774165275,-0.14502924102998804
Fabsies Lounge,Lounge,51.44894806582272,-0.14699818327385114
SpeedFlatmating Clapham,Bar,51.45396679646958,-0.1462554931640625
Boxit Bootcamp.com - London South,Nightclub,51.45316198208862,-0.14817284007094125
The Duke Of Devonshire,Pub,51.4526964724966,-0.1472816036113397
Bulliani Anus Association,Cocktail Bar,51.45075,-0.147988
The Loft,Lounge,51.45027792980703,-0.14565822654968835
Glow Lounge,Bar,51.45381069170722,-0.14663448551374045
The Sultan,Bar,51.448098,-0.126077
The Hand In Hand,Pub,51.44766904520875,-0.12673147146890237
Prince of Wales,Pub,51.453465373617355,-0.12685775756835938
Courtenay House Wine Society,Wine Bar,51.44805634233267,-0.12501239776611328
Palais De Evans,Bar,51.453503,-0.129203
Elm Park Tavern,Pub,51.449256855973964,-0.11747775119900995
Super Cute,Café,51.4535794,-0.1159741
Le Jardin du Leander,Other Nightlife,51.45391331162775,-0.11634349822998045
Cafe Rez,Pub,51.4536325,-0.11306706666666666
Mayor Of The Straw,Other Nightlife,51.453552,-0.114752
The Florence,Pub,51.4526309237007,-0.10290563095061127
Cafe Provençal,Café,51.45279656380972,-0.10113746593636858
Canopy Beer Co.,Brewery,51.45200687155541,-0.10113399979908266
The Commercial,Pub,51.45312831699015,-0.10254964063710421
Bullfinch Brewery,Brewery,51.448200594570984,-0.10150377799945771
First Aid Box,Cocktail Bar,51.45274167636295,-0.10351640296141207
Agile Rabbit,Bar,51.452793,-0.102394335
OTC Bar - Off The Cuff,Bar,51.45298007360523,-0.10231033174387154
Islands Arts Studio,Lounge,51.453394,-0.101393
The Poet,Bar,51.45294386441705,-0.10249167010994475
A Head in a Hat,Brewery,51.45269265855912,-0.10287781959419817
Jazz On The Hill,Lounge,51.45304144485529,-0.10258579440803556
Brockwells,Wine Bar,51.450766375195094,-0.10033822935150481
Sebatians.,Bar,51.451411,-0.100566
The Green Parrot,Bar,51.452898,-0.102342
bar 127,Bar,51.452678,-0.103196
Fab Bar,Cocktail Bar,51.450744,-0.100554
Vintage 1824,Wine Bar,51.45294,-0.100445
Crown & Greyhound,Pub,51.449411680742635,-0.08511370945650563
The Plough,Pub,51.44945419537851,-0.07424890557316445
The Castle,Pub,51.451935283006016,-0.07297710102175062
CPT East Dulwich,Pub,51.451928427097016,-0.06727602833926646
Clockhouse Pub,Pub,51.44946252455738,-0.07428119840479702
Watson's General Telegraph,Pub,51.45184142376949,-0.05971827837566397
Forest Hill Tavern,Pub,51.45176851017112,-0.05973476386043037
The Rose,Pub,51.45182853453751,-0.05965367828806631
The Chandos,Pub,51.44765933163583,-0.0411812961101532
Grounds & Grapes,Bar,51.449329,-0.043891
The Brockley Jack,Pub,51.45340307266551,-0.03841512130302035
The Clumsy Mole,Bar,51.449238,-0.043724
Pauls Glasses,Nightclub,51.4532748940365,-0.036674481572644003
Corsica Studios,Nightclub,51.44892120361328,-0.0439087450504303
Hither Green & District Railwaymen's Social Club & Institute Ltd.,Social Club,51.45158346839635,-0.004763312973338629
Le Bourgeois,Bar,51.44647017180491,-0.01249995064800888
Lee Pub,Beer Garden,51.452467,-0.008351
286,Bar,51.450740822255526,-0.01371103626230446
The Rusty Bucket,Pub,51.45035141440556,0.05216091871261597
The Park Tavern,Bar,51.449834426954695,0.05439999939558418
Eltham GPO,Pub,51.4503454752311,0.0540715508832256
The White Hart,Pub,51.45127487182617,0.048877350986003876
The Banker's Draft  (Wetherspoon),Pub,51.45072827355207,0.05210034027055179
Down The Club,Pub,51.45108185717426,0.04699303548005678
The Crown,Bar,51.45041313104554,0.05206624969771149
Eltham hill  club,Bar,51.45144081428015,0.047050840956363076
"The Crown Pub, Eltham",Pub,51.45044,0.05643
The Long Pond,Pub,51.45054533510331,0.059333938202875976
Jolly Fenman,Pub,51.45146928937769,0.09096264987037792
The Royal Oak,Pub,51.452498899009186,0.12755956833185017
The Three Blackbirds,Pub,51.448277298348884,0.1212137744882468
The Duke Of Wellington,Pub,51.45211437498243,0.174157777096051
Power Sounds Discos & Karaoke,Bar,51.44838397803417,0.1953291893005371
Air & Breathe Nightclub,Nightclub,51.44597354176692,0.21454198180686967
Hufflers Arms,Pub,51.448906,0.217978
Bar Prime,Tiki Bar,51.45119,0.21205
The Blue Anchor,Pub,51.44714965950698,0.2334632445126772
Lads of the village,Pub,51.450948,0.264545
Culverstone Green,Speakeasy,51.446998,0.27696
No Frills Joe Brewing Company,Brewery,51.44948,0.2928657
The George and Dragon,Pub,51.45056094540513,0.30550681298045984
Caveman Brewery,Brewery,51.4500522090727,0.308840274810791
Rising Sun,Bar,51.446842,0.3014377
Belfry Bar RUS,Bar,51.4595,-0.240757
Job Hunt,Bar,51.457511,-0.235184
Lost & Co,Bar,51.4614212648301,-0.21684825462658505
Ye Olde Spotted Horse,Pub,51.46266357097646,-0.21624461745995122
The Fox & Hounds,Pub,51.46090994085618,-0.21749378599407038
Revolution,Bar,51.461096,-0.217418
romantica,Speakeasy,51.461287,-0.22119
Fez Club Putney,Nightclub,51.46077203039227,-0.21690200220563932
The Vault London,Bar,51.46167573135285,-0.22296487481585694
El Patron Londres,Bar,51.460718754402805,-0.2167224884033203
Mini Bar,Bar,51.45879341188814,-0.22286720651022732
East Putney Tavern,Bar,51.459644,-0.21113577
Queen Adelaide,Pub,51.45997301632344,-0.1993804089653218
The Normanby,Pub,51.46273690675608,-0.20915412195615168
The Cat's Back,Pub,51.461906428337244,-0.1994233437937717
Dutch Courage Bar,Bar,51.4568326361357,-0.20395198248365407
View94,Modern European Restaurant,51.46240324564675,-0.19996404647827148
The Castle,Pub,51.46154763881651,-0.2076244354248047
Ram Brewery,Brewery,51.459231930821396,-0.21034180606159686
Get Merry,Nightclub,51.45855,-0.19975
Break Dancin' Bek,Nightclub,51.45857,-0.199838
You Should Be Dancin',Nightclub,51.458611,-0.199944
Dancing Queen,Nightclub,51.458554,-0.199951
Putney Royal British Legion,Pub,51.4586067199707,-0.2087794542312622
Kings Arches,Speakeasy,51.46294473763025,-0.20924471145406037
Putney Workmans Club,Bar,51.45805447423552,-0.20911587121996678
Stabby's Disco,Nightclub,51.45855,-0.19975
Barry's Bar,Bar,51.45811732809776,-0.20546532220638114
Boogie Woogie,Nightclub,51.458611,-0.199944
Let's Get It On,Nightclub,51.45857,-0.199844
The Ship,Pub,51.463657483786456,-0.18804117304278412
The Alma,Pub,51.46077206878576,-0.1877907889577166
Konnigans,Restaurant,51.46015876139984,-0.18862045523777995
Brewers Inn,Pub,51.45678002375434,-0.18956455650277432
King's Arms,Pub,51.457344,-0.194708
The East Hill,Pub,51.458655599712415,-0.1855551001261323
The Armoury Pub,Pub,51.458720116251506,-0.19451899932384534
The Grapes,Pub,51.4587186027974,-0.19058879054410502
The Royal Standard Pub,Pub,51.460852335050056,-0.18535908116037092
Youngs Brewery,Brewery,51.458432800912654,-0.19203735244945255
The Spread Eagle,Pub,51.456719116799626,-0.19246799859142857
The Standard,Pub,51.46084100553732,-0.1854938325075394
dolphin house of dreams,Strip Club,51.463648,-0.188898
"The Spreadeagle, Wandsworth",Pub,51.456440401934735,-0.1922607421875
Steam Bar & Restaurant,Bar,51.457777517610474,-0.18457214694415022
The Roundhouse,Gastropub,51.458975768601306,-0.1738251259159774
Ben's Canteen,Café,51.46020517921923,-0.17781998556890502
Stirred,Cocktail Bar,51.460286,-0.177135
Powder Keg Diplomacy,Cocktail Bar,51.46040330606372,-0.17644342405391353
Hawkins Forge,Pub,51.46056676390376,-0.16915731409762413
The Plough Bar & Kitchen,Bar,51.461633,-0.173325
The Beehive,Pub,51.45999253282048,-0.1782240006423431
Churchills,Pub,51.460331995715535,-0.17660701417560487
Jacksons,Cocktail Bar,51.460344,-0.177238
The Shed,Beer Bar,51.461864,-0.177291
Frenty's flat,Beer Bar,51.460864,-0.174818
Alchemist,Cocktail Bar,51.4596775,-0.1796861
The Mess Bar,Bar,51.46035869979857,-0.18042998858493825
New Deli,Beer Garden,51.46296,-0.176648
Tlalocan Mexican,Bar,51.460598,-0.17583489418029785
The Grove,Other Nightlife,51.461542054538974,-0.17827939698424633
BrewDog Clapham Junction,Beer Bar,51.46100911236218,-0.16299561507213434
The Merchant,Pub,51.46097267690847,-0.16353871760168673
Little Bird,Cocktail Bar,51.460942,-0.162605
The Bank,Pub,51.459685647929156,-0.16644662539070587
The King of Ladies Man,Cocktail Bar,51.46100513405932,-0.16290252767415211
All Bar One,Bar,51.459657716930764,-0.16646814685000128
Humble Grape,Wine Bar,51.46105537274505,-0.16270993198481015
Tequila Mockingbird,Cocktail Bar,51.460976,-0.1645381
The Walrus Room,Cocktail Bar,51.460969426680364,-0.1647573709487915
Frieda B,Cocktail Bar,51.460896,-0.16515341
Rise 46,Cocktail Bar,51.46092868795672,-0.16511857495709012
Battersea Social Club,Bar,51.4621047270199,-0.1614009591769225
Southsider Cocktail Club,Cocktail Bar,51.4609020291749,-0.16569779026624754
Red Monkey,Karaoke Bar,51.460881,-0.16545436
T's House Of Horrors,Other Nightlife,51.456964,-0.160515
Brodie's,Other Nightlife,51.458754,-0.162257
The Holy Drinker,Bar,51.45901383154067,-0.16621826326445718
Dime Bar,Bar,51.460949940899,-0.16533827127837855
The Windmill On The Common Hotel,Pub,51.45750044853978,-0.14385925081311415
The Rookery,Pub,51.456303326023104,-0.144188578909461
Inn Clapham,Bar,51.46171,-0.139515
The Sequel,Bar,51.46071992719065,-0.14136668355418874
The People's Republic,Bar,51.460825708076285,-0.13874530792236328
Wc Clapham,Wine Bar,51.45833,-0.142467
The King & Co,Pub,51.45958817022485,-0.13400250874186923
The Hope & Anchor,Pub,51.45981,-0.126474
Revolution,Bar,51.46315475973752,-0.1339630156111271
coach & horses,Bar,51.459673,-0.131403
The Beast of Brixton,Cocktail Bar,51.459472,-0.12484
CPR Bar,Bar,51.4616353,-0.1356248
Ants Pants,Bar,51.459446,-0.13044488
Layali Lounge,Lounge,51.459999848994386,-0.1347122786728038
Flair@whitehouse,Bar,51.460745,-0.135668
brixton blackout,Other Nightlife,51.460651829049134,-0.1292305459754076
Hannah's Jerk & SteakHouse,Steakhouse,51.4598929,-0.1296257
Park House,Café,51.45999323625818,-0.1346081791501206
Gerards,Pub,51.459015,-0.13042174
The Grey Goose,Pub,51.459541,-0.133984
Bear Towers,Pub,51.46196585683145,-0.1283325377894412
Off With His Head,Pub,51.45963082531964,-0.13392582409486423
The Blues Kitchen,BBQ Joint,51.4603134069692,-0.120438915385768
Canova Hall,Italian Restaurant,51.46393661129359,-0.11513047452350199
The Prince of Wales,Pub,51.461405861987146,-0.11524449598074545
The Beehive  (Wetherspoon),Pub,51.463783644113626,-0.1145952680138844
The Craft Beer Co.,Bar,51.46338517478203,-0.1140363522577955
Trinity Arms,Pub,51.46173950821622,-0.11928358978691707
Dogstar,Bar,51.46188601645548,-0.11189383154426834
Electric Brixton,Nightclub,51.4601547818653,-0.11654054811424354
The Effra,Pub,51.460040086975,-0.11302546848589592
Barrio Brixton,Bar,51.4606582873966,-0.11829474525408244
SW9 Bar,Bar,51.46334308391527,-0.11565052335080056
Three Eight Four,Cocktail Bar,51.461845109286564,-0.11217110773441334
Market House,Pub,51.46150035064427,-0.11418418317376133
Seven at Brixton,Tapas Restaurant,51.46203893600984,-0.11359096631962734
The Prince Albert,Pub,51.461666908622114,-0.11369195881577315
Jalisco,Mexican Restaurant,51.46211195826452,-0.11140969609721327
Satay Bar,Asian Restaurant,51.46149085895732,-0.11441608135478107
Ritzy Bar/Coffee,Café,51.46119592165316,-0.11533269797720384
Lounge,Breakfast Spot,51.46160249812096,-0.11158102561469309
London Beer Lab,Brewery,51.46336344858991,-0.11636168897684258
Brixton Port Authority,Beer Bar,51.4633903503418,-0.11228900402784348
The New Zealand Wine Cellar,Wine Bar,51.46341847819986,-0.11249647570643931
The POW Live,Nightclub,51.46145143605156,-0.11495866818851527
Dee Dee's,Bar,51.45672515594146,-0.096600752349991
The Anchor,Pub,51.462466333092785,-0.09928209208120554
Watermark pub,Pub,51.463571798960054,-0.1015873555732925
The Cherry Tree,Pub,51.46152615120757,-0.07906269531621012
The Vale Bar,Pub,51.461508646982956,-0.07908542845686609
East Dulwich Tavern,Pub,51.46047345903158,-0.07524529924463624
The Actress,Gastropub,51.457530075038214,-0.071306925168611
The Bishop,Pub,51.45968752645194,-0.0751447530292259
The Clock House,Pub,51.45890190998039,-0.06635254378480362
The Gowlett,Pub,51.46389406816934,-0.0705097046643029
Toasted,English Restaurant,51.4594340630296,-0.07509282146576805
Terroirs,Wine Bar,51.459293,-0.074839
Clarkshaws Brewing,Brewery,51.458718,-0.067295
Boho,Cocktail Bar,51.4588623046875,-0.06653060019016266
Locale Cocktail bar and Restaurant,Cocktail Bar,51.461658,-0.070782
Boho,Bar,51.458959,-0.074945
Kebab And Wine,Dive Bar,51.460155200698615,-0.07522457885511995
The London Sky Bar,Lounge,51.46181492827169,-0.07059536380233866
The Ivy House,Pub,51.45831731063649,-0.05202890531624659
Peckham Palace,Lounge,51.460174,-0.056102
Brickfields,Cocktail Bar,51.460217,-0.0339799
Brockley Brewery (The Brockley Brewing Company),Brewery,51.46226467810521,-0.03613224829342145
Vinted,Wine Bar,51.463627,-0.038890354
The Watch House (Wetherspoon),Pub,51.45992360267623,-0.011499537744478032
Suttons Radio,Pub,51.461011,-0.010554
Dylans,Bar,51.463059,-0.010072
The Joiners Arms,Pub,51.463319,-0.010472
Winyl,Wine Bar,51.46015930175781,-0.012490999884903431
Rotary Cocktail Bar,Cocktail Bar,51.460393963037376,-0.012111629966949224
Games 4 all,Other Nightlife,51.4618323,-0.0130403
Rum Shack,Cocktail Bar,51.46053754876944,-0.012111629966949224
Wine Bar,Wine Bar,51.46026611328125,-0.012272999621927738
Slushy Bar,Bar,51.46065038526959,-0.012477710357224161
Lewisham Highline,Cocktail Bar,51.46022415161133,-0.012196004390716553
El Barrio,Nightclub,51.462383,-0.010686
Decadence,Nightclub,51.46045446395874,-0.011002421379089355
Shandy Salon,Bar,51.46026611328125,-0.012272999621927738
The Dacre Arms,Pub,51.46107508650446,0.0033121635178021197
Elements Bar,Bar,51.458675,0.004862
Swan,Bar,51.45871,0.005492
Rambles Bar,Bar,51.458615,0.00486
mathBREW,Pub,51.457382743241546,0.022466182708740234
Knight Riders,Nightclub,51.4591934,0.02227
Howerd Club,Bar,51.46012368688815,0.04684231931346669
Tudor Barn Eltham,Restaurant,51.45713054360348,0.04938370426913969
Breeze,Bar,51.458756,0.08002567
Chateau Slade,Gay Bar,51.46212990378479,0.0750649462283998
Nags Head,Pub,51.46208714046679,0.11156666921877267
Guy Earl Of Warwick,Pub,51.46122,0.11542309
The Door Hinge,Pub,51.46174035978214,0.11312013072426866
Rose and Crown,Pub,51.461959,0.112835
conservative club Dartford,Bar,51.463706970214844,0.1259240359067917
The Wrong 'Un (Wetherspoon),Pub,51.4577345439291,0.1373892396089831
Pure Night Club,Nightclub,51.45712489878173,0.1381736038265932
Kings Arms,Pub,51.45704278249959,0.14270679639800624
The Rose,Pub,51.457207875950324,0.14028106271381924
The Roof,Speakeasy,51.45812228469122,0.13610747298185594
Goals Soccer Centre,Event Space,51.458319421630584,0.1436367591823
The Kings Head Public House,Pub,51.456698,0.138167
Nine,Bar,51.457566,0.136818
Affinity & Beyond,Nightclub,51.45750895018883,0.1379105952026401
Lord kitchener,Pub,51.4601,0.14037
Golden Lion,Pub,51.457873,0.136282
Volunteer Pub,Pub,51.459617096045974,0.13749156916004082
Bexleyheath Conservative Club,Bar,51.45704541205836,0.14140069484710693
Blend Bar & Grill,Lounge,51.457989,0.135258
Arcadia,Nightclub,51.457531,0.137931
Nyne Lounge,Lounge,51.45783091047533,0.13492584228515625
Zingara,Bar,51.45800519736867,0.1347456057859726
Jolly Miller,Pub,51.458646477506335,0.15194177627563477
The Amazon and Tiger,Pub,51.46329261140049,0.3661776232367372
Duke's Head,Pub,51.467280538105115,-0.21692097331701435
Star & Garter,Wine Bar,51.46702454574527,-0.2160509149521729
The Half Moon,Pub,51.467419526410865,-0.22006767423138476
Hudson's Wine Bar,Wine Bar,51.46774230593809,-0.22147784171164664
The Rowing Club,Bar,51.467374203261016,-0.21692873447229993
The Eight Bells,Pub,51.46805877303904,-0.2102433847597484
The Golden Lion,Pub,51.46988726416853,-0.21022557909584455
The Temperance,Pub,51.46942945640078,-0.21036248280899913
Kings Arms,Pub,51.46929465866774,-0.21017499242249216
Pilango Cider,Brewery,51.47319,-0.20484366
On the green,Pub,51.472660137190545,-0.20032886421141155
Snoozeville,Other Nightlife,51.47313641034455,-0.2024400417558776
Polo In The Park - Mahiki Bar,Bar,51.469768534430045,-0.2014607919829621
The Kings Head Live,Pub,51.469408635569685,-0.21028677531790885
The Ramshackle,Bar,51.47115662583707,-0.21098305111515087
Royal British Legion Fulham,Bar,51.47242736816406,-0.2015150934457779
The Sands End,Pub,51.47108028014239,-0.18707718326401304
Joe's Brasserie,Gastropub,51.47257609550446,-0.19161421665286463
Neverland,Beach Bar,51.466586,-0.187463
Compass bar,Bar,51.471369685655525,-0.19126732596798188
The outpost,Brewery,51.472044,-0.190999
Duke on The Green,Pub,51.46764038,-0.19487213
Neverland,Beach Bar,51.466713,-0.187269
West London Wine School,Wine Bar,51.46997635631466,-0.18513631155699473
The Asparagus (Wetherspoon),Pub,51.46985395752827,-0.1714830608035241
Banyan on Thames,Asian Restaurant,51.470482353935225,-0.17858267118092447
The Woodman,Pub,51.47353549960232,-0.17402300440829707
The Candlemaker,Pub,51.47060396124202,-0.17255761557876392
Sambrook's Brewery,Brewery,51.47024240768769,-0.1759998745102084
frenchies,Beach Bar,51.470415,-0.17435
Battersea Labour Club,Event Space,51.467349408203866,-0.17033100128173828
Battersea Bar + Food,Bar,51.46961433279103,-0.17553867099010317
The Bellevue,Pub,51.470450512338864,-0.17243385314941406
Helix Bar,Bar,51.4687543657881,-0.17855997377346466
Papine Jerk‎ Centre,Pub,51.467736,-0.175389
The Latchmere,Pub,51.47215096120811,-0.16549729723721374
The Lighthouse,Pub,51.47276765690137,-0.1625933364964579
Fox & Hounds,Pub,51.46717508827301,-0.16277608640750135
Bar Room Bar,Beer Garden,51.47303400845645,-0.16266195138117678
Bar Social,Bar,51.46839204432063,-0.16043901443481445
The Flag,Pub,51.47159298654836,-0.15564833916540136
The Bobbin,Pub,51.466358612151026,-0.14273192625435813
K-Town's Kwik'N'Eazy Kocktail Klub,Cocktail Bar,51.4683531815284,-0.14105632501610746
Victoria,Pub,51.472929820447355,-0.14819139697112257
Ceti Alpha Six,Karaoke Bar,51.468905,-0.142554
The Plough Inn,Pub,51.46810719525473,-0.14473535101978202
Lithium Bar,Bar,51.46792635200743,-0.15049193499873312
Mist on the Rocks,Bar,51.468041,-0.144705
The Phoenix Bar & Grill,Wine Bar,51.468461444328305,-0.14425244740912635
The P bar,Gay Bar,51.46883796666666,-0.14265033333333335
The Kitchen,Beer Garden,51.467793,-0.142112
Stockwell's Newest Bar,Lounge,51.472742,-0.125583
Hara The Circle Bar,Bar,51.467819019616634,-0.1278132214993452
Las Palmeras,Beer Garden,51.470758,-0.123857
Sewing Studio,Strip Club,51.472809,-0.134259
71 union road,Nightclub,51.46948176090469,-0.13127771244824746
The Kings Head,Pub,51.46721353243322,-0.1267740190120186
prince of wales,Bar,51.47177661929418,-0.1347010796865278
Sam's Jamery (GMT),Beer Garden,51.46714889852687,-0.12638568878173828
Feeleys Pub,Bar,51.47165350262498,-0.13559433838262705
The Clarence,Karaoke Bar,51.47127054124952,-0.12842003583863215
Crown & Anchor,Pub,51.47143321217957,-0.11272407965671595
Jamm Brixton,Music Venue,51.47068906757216,-0.11233782361964119
The Queen's Head,Pub,51.46740574249719,-0.11802311311066958
Tıger tıger,Nightclub,51.46990738295501,-0.11215554698983993
Plan B,Nightclub,51.46973858465985,-0.11248733670189806
The Dahlak Lounge,Other Nightlife,51.47114319833171,-0.11264199630859127
Brixton Academy Backstage Bar,Bar,51.46596532683282,-0.11477598654228262
Equilibrio,Nightclub,51.467245,-0.117514
BXT Frat House,Nightclub,51.471051,-0.112783
The Sun of Camberwell,Bar,51.470179501943925,-0.09484102850794211
Flaxman Arms,Sports Bar,51.467434454065746,-0.10149838316933069
Southwell Arms,Beer Garden,51.466430909612775,-0.09913950200010646
Wickwood Tavern,Pub,51.468723925286575,-0.1014172002955517
The Phoenix,Pub,51.46803592375502,-0.08954070050997
George Canning,Pub,51.468023584269,-0.0863164788134162
Grove House,Pub,51.4721244,-0.0880803
Shenley Arms,Bar,51.47058,-0.078783
The Bishop,Bar,51.47309940890361,-0.0812084277037573
Frank's Café & Campari Bar,Bar,51.470974277001,-0.06694481109739417
John the Unicorn,Pub,51.46876310488956,-0.06758542587553529
Peckham Springs,Cocktail Bar,51.469696936385,-0.0701340835083436
The Four Quarters,Gaming Cafe,51.468006411493505,-0.06710046794281133
Bar Story,Cocktail Bar,51.46963981172262,-0.06990015163094485
Brick Brewery,Brewery,51.46965180524746,-0.06953175125428095
The Victoria Inn,Gastropub,51.46743406892512,-0.07239386977779025
Canavan's Peckham Pool Club,Pool Hall,51.467252123406276,-0.0668766253345134
200 Rye Lane,Cocktail Bar,51.466877,-0.06599642
The Kentish Drovers (Wetherspoon),Pub,51.47368263367916,-0.07005184204439249
Social,Bar,51.469742,-0.066422
Peckham Refreshment Rooms,Restaurant,51.46967884102745,-0.06911118246761601
Gosnells Meadery,Brewery,51.46844424369223,-0.07495593079200408
Bussey Beer Garden,Beer Garden,51.470036,-0.06634075
The Hope,Pub,51.47367243584704,-0.07092721595710329
The Prince Albert,Pub,51.4681842940326,-0.0723384714000557
The Nag's Head,Pub,51.46714669153914,-0.06588733333015086
CLF Art Cafe,Event Space,51.46991429437931,-0.06758807625487519
WEST,Wine Bar,51.470949,-0.067318
Near & Far,Cocktail Bar,51.47091734828099,-0.06757645596492814
The Telegraph (at The Earl of Derby),Whisky Bar,51.4708957019004,-0.05033361072566328
Little Nan's Tropical Den,Speakeasy,51.469515,-0.052473
Swiss Tavern,Pub,51.46984274612776,-0.04953173897808466
Queens Cafe Brazil,Bar,51.4733,-0.056003
cantinho da Flavex,Hotel Bar,51.471971,-0.057728
The Golden Anchor,Pub,51.4684455121972,-0.05250692367553711
Kiki's,Other Nightlife,51.470348,-0.051761
The Hollydale Public House,Pub,51.469421,-0.056696
Hollydale Tavern,Pub,51.46966010422256,-0.056131
Plan B,Nightclub,51.46858969,-0.04110087
Little Nan's Cocktail Club,Lounge,51.467857360839844,-0.04502657800912857
The Brookmill,Pub,51.4708490045668,-0.02186938195121117
The Royal Standard Pub,Pub,51.473557,-0.027240514755249023
Royal George,Pub,51.472040106976074,-0.028593702693394934
Crown & Sceptre,Pub,51.472152,-0.024259
Journeys Greenwich West,Hostel,51.47355498442351,-0.027165846712162788
Little Nan's Cocktail Club,Cocktail Bar,51.46725518441549,-0.023377159177537063
The Cranbrook,Pub,51.47103505,-0.02191755
Deptford Bunker,Nightclub,51.47361014663405,-0.025420512498529228
Jerry's Pool Hall And Pub,Sports Bar,51.469627,-0.028185
Sky Citadel,Strip Club,51.469623,-0.028768
Friendly Place,Speakeasy,51.472374,-0.015076
Cash Money Flat,Gay Bar,51.46781572757132,-0.015048997614080888
Princess of Wales,Pub,51.46933398020491,0.010359506816897507
The Hare & Billet,Gastropub,51.46811724143596,0.003666512538307413
Zerodegrees,Bar,51.46741708029574,0.008439509227625314
The Crown,Pub,51.46664879502945,0.0071820948354151355
Le Bouchon Wine Bar,Wine Bar,51.466985,0.007047
The Lost Room,Lounge,51.468618,0.010217
Le Bouchon,Wine Bar,51.46728813175964,0.007064734152554288
Mordens Wine Bar,Bar,51.466708373474674,0.008545748578241441
RHP Bar,Bar,51.470677340717884,0.053071
The Bull,Pub,51.469326541477116,0.066431358597473
The Red Lion,Pub,51.470650172112265,0.060155242681503296
The Eagle,Beer Garden,51.47216111833363,0.0607007877797949
The Green Man,Pub,51.468365428846916,0.09232925693531026
Lord Kitchener Crown carvery,Pub,51.469128110018886,0.12236106483947509
The Lord Kitchener,Gastropub,51.469160945555394,0.12238304907392272
The Earl Haig,Pub,51.47302305374724,0.14082206005199158
"The Ship, East Tilbury",Pub,51.467896,0.427276
The Fingered Waitross,Bar,51.482619,-0.220625
The Man Cave,Beer Garden,51.48216152278935,-0.21639304107314178
Harbodia,Speakeasy,51.477651,-0.217627
The Fulham Mitre,Pub,51.47996955919702,-0.20260945210527004
Chairs & Coffee,Coffee Shop,51.47971259538706,-0.1989867996557825
The Rylston,Bar,51.483821608911455,-0.20695206749610112
The Captain Cook,Pub,51.481222184398575,-0.2097778892669888
The Wellington,Pub,51.4823777,-0.2030615
RadPad,Champagne Bar,51.477478,-0.206205
Simmons Fulham,Cocktail Bar,51.481001639330934,-0.1991710067517598
Little Blue Door,Lounge,51.476231,-0.204557
The Bedford Arms,Pub,51.48112644361357,-0.2100069442409003
The Fulham Pub,Pub,51.476072,-0.205562
Hanger & Cellar,Bar,51.48041667,-0.1988187
Below The Cut,Speakeasy,51.48050091830084,-0.1987302303314209
Jem's Palace,Other Nightlife,51.482448,-0.202339
Amuse-gueule,Bar,51.47619529177207,-0.2046391432959834
La Maisonnette,Beer Garden,51.477679222509224,-0.20684438874915678
Hammersmith Pub,Cocktail Bar,51.479014,-0.208389
Jak's,Restaurant,51.480376990467576,-0.18522784744482323
Frankie's Sports Bar & Diner,Sports Bar,51.4809449447072,-0.18941783247181138
The Jam Tree,Bar,51.479440164799996,-0.18699627566055158
The Rose,Pub,51.47714219474344,-0.1893785600314639
Under the Bridge,Music Venue,51.48170610132176,-0.1897398587369026
Zefi bar,Lounge,51.480535,-0.18446
The Tommy Tucker,Pub,51.478952626104,-0.19273378013605566
The Chelsea Pensioner,Pub,51.48164161719605,-0.18751009819078282
Oyster Rooms (Wetherspoon),Pub,51.480162708921895,-0.19448508803468761
Kona Kai,Cocktail Bar,51.48028583840406,-0.19209098388255336
Embargo 59,Nightclub,51.48027878380049,-0.185498917209759
Broadway Bar & Grill,Bar,51.47998489857398,-0.19557411451692183
McGettigan's Fulham,Sports Bar,51.48011671809254,-0.19429385662078857
The Imperial Arms,Pub,51.478685597017545,-0.18847100729911329
Chelsea Meze,Bar,51.48314286631774,-0.18618818890500186
Fox & Pheasant,Pub,51.48185997560509,-0.18753259020349242
Mare Moto,Italian Restaurant,51.479260521474394,-0.1875483853896035
Moonshine Saloon,Bar,51.479922,-0.185668
Captains Bar (Stamford Bridge),Bar,51.481601594128655,-0.1900712077128541
Chateaux 6,Bar,51.47999194587391,-0.1954992009397007
The Morrison Bar & Lounge,Pub,51.4774806832986,-0.19058704376220703
Vintage,Bar,51.47996636984435,-0.1955503903160509
Shoeless Joe's,Cocktail Bar,51.48016679998738,-0.18574859324270773
Chymayo,Pub,51.479324,-0.18750283
Brogans,Pub,51.47991951792861,-0.19604972558934627
lCrazy Larrys,Nightclub,51.4801832147501,-0.18509979852799704
Delta 360˚ Lounge,Lounge,51.48098520170579,-0.18936476802246155
Ahmet Sultan Rezidansı,Speakeasy,51.479155,-0.191888
Ticket Office Bar,Bar,51.480124,-0.195058
Hand & Flower pub,Pub,51.477875633652694,-0.18970284700431395
Harris Suite - Stamford Bridge,Restaurant,51.48118337745745,-0.19095610405701502
Embargo Night Club,Nightclub,51.48023358723992,-0.18559915236533903
Chelsea Bar,Pub,51.480885108069735,-0.19554432330346705
Black Bull,Bar,51.48160087803579,-0.18732021354571954
Broadway Kitchen & Bar,Bar,51.4800474,-0.1963508
Dolce & Gabbana Lounge,Lounge,51.481661728481185,-0.19095610405701502
Miss Prada's Residence,Lounge,51.480426,-0.188938
Sofa So Bar,Sports Bar,51.48029979837779,-0.19192984821739623
The Draft House - Westbridge,Pub,51.478359261877735,-0.16991964375339885
Bunga Bunga,Cocktail Bar,51.4787847822031,-0.17028529315846228
Ritorno,Cocktail Bar,51.483051,-0.177968
Riley's,Bar,51.482601,-0.179218
The Bletchley,Speakeasy,51.48204237087919,-0.17997793897691391
S Bar,Thai Restaurant,51.478783,-0.170376
The Scene,Bar,51.481998,-0.179973
Glory Morning Club,Lounge,51.48229948115011,-0.1733997181239525
Buchans,Bar,51.4796656651139,-0.1700754532315618
The Old Fashioned Bar,Cocktail Bar,51.482056,-0.179827
La Mansión,Cocktail Bar,51.480794734269786,-0.1810759453473474
Chelsea Conservative Club,Pub,51.483244,-0.17746
union arms,Pub,51.47730422816171,-0.1703600564410502
The Prince Albert,Pub,51.479601931187865,-0.16558615231681306
Prince Albert Pub (Geronimo),Pub,51.47955552312205,-0.16532943651971546
The Mason's Arms,Pub,51.47690235937554,-0.14688613917561333
The Duchess,Bar,51.47931261683572,-0.14250978195443237
Vagabond Wines,Wine Bar,51.482539,-0.146898
Number 29,Pub,51.483334,-0.146735
Pestana Chealsea Bridge Hotel Bar,Bar,51.481601,-0.14881
The Power Station,Bar,51.47716366963355,-0.14641665715693877
Flanagans of Battersea,Pub,51.478259460235144,-0.14430625174853612
The Vauxhall Griffin,Pub,51.481581,-0.125754
The Cavendish Arms,Pub,51.47648929274946,-0.12753288150876338
Flash Bar,Nightclub,51.4809181275365,-0.13068383103931863
Mawbey Arms,Pub,51.47817562234123,-0.12582778930664062
Renaissance rooms,Other Nightlife,51.4820460598481,-0.12649649233679142
Nolans Free House,Bar,51.47990757332871,-0.12586520194782277
Business Lounge,Lounge,51.481383,-0.127787
The Nott,Pub,51.478609,-0.129056
Half Moon Pub London,Pub,51.47719974466957,-0.12840960753645678
Anti Christ,Nightclub,51.48138373117798,-0.1279267645555681
The Gladstone,Bar,51.479157415227164,-0.12685571004505217
Afterhours Towers,Speakeasy,51.477194,-0.131925
Cable Bar & Cafe,Café,51.480743,-0.111164
The Fentiman Arms,Pub,51.480923920898874,-0.11821217608653001
Brown Derby,Pub,51.48112400467194,-0.11329602357508331
Hanover Arms,Pub,51.48150209678607,-0.11288475350503753
100 Hundreds Bar,Bar,51.483369,-0.114581
Smokehouse,Cocktail Bar,51.481577067158604,-0.11373919315255858
Crewdsi,Brewery,51.479382389183485,-0.11136391231947863
48,Bar,51.47944,-0.111665
"The Greyhound, Oval",Pub,51.48119743,-0.11325509
Bar Da Poncha,Bar,51.4806919300296,-0.11116678839638344
Picrad's,Lounge,51.48170699461809,-0.10062671333258728
Clarendon Arms,Pub,51.47741872,-0.10147641
The Canterbury Arms,Pub,51.48328524716653,-0.10307484467591507
The Home Of Morris,Nightclub,51.48051079576057,-0.10052443609993962
Haos,Nightclub,51.478061,-0.100288
Union Tavern,Pub,51.478237431310646,-0.10352522134780882
Bar Lennucia,Bar,51.48004856286559,-0.10398268354912818
Bola8,Bar,51.48027801513672,-0.09465129673480988
Corrib Bar,Pub,51.47981380945916,-0.09402753060795895
Old Tavern,Bar,51.478893494960964,-0.10362574206293534
Miliki Spot,Pub,51.477539,-0.100368
The Flying Dutchman,Gay Bar,51.478526170158844,-0.08534458539575138
St georges tavern,Pub,51.47756907186621,-0.0846000857721999
Bernard Myers Bar,Bar,51.47798371600371,-0.08586197039736426
Lapland,Speakeasy,51.47996520996094,-0.08125530183315277
Princess Of Wales,Pub,51.48030623835755,-0.08799524272303237
Bianca Road Brewery,Brewery,51.482762,-0.070814
Duke of Sussex,Pub,51.478802480836755,-0.0651651135795094
Vlados Place,Wine Bar,51.482279,-0.073083
Ye Olde Apple Tree,Pub,51.479505,-0.074088
The Asylum Pub,Pub,51.479791,-0.06362
Esquire Bar And grill,Wine Bar,51.47916030883789,-0.05506206303834915
The Windsor,Sports Bar,51.47832107543945,-0.05381770059466362
Windsor Hall,Bar,51.47833625738812,-0.053755445584755236
Asylum Tavern,Pub,51.477285,-0.058608
Strawman Brewery,Brewery,51.478574538154675,-0.05414242910774192
AMP Studios,Other Nightlife,51.47859324888391,-0.054033100605010986
Taproom SE8,Bar,51.478044449072925,-0.02673623818478692
Deptford Craft Beer Feast II,Beer Garden,51.478606,-0.026611
Job Centre,Pub,51.47838189917437,-0.026015846000140102
"The Duke, Deptford",Pub,51.48106074182312,-0.020442018779627938
Villages Brewery,Brewery,51.478516,-0.023701005
The Dog & Bell,Pub,51.483382323277205,-0.025795771476234006
Little Nan's Bar,Cocktail Bar,51.478701439722045,-0.026603842232997554
Gin & Beer,Cocktail Bar,51.478729,-0.025872
Buster Mantis,Bar,51.478747729566436,-0.02582012839270399
The Tapas Room,Wine Bar,51.478382,-0.026931
The clyde,Pub,51.481065763546795,-0.03103193103448276
tyrants kitchen,Speakeasy,51.48093795776367,-0.021940309554338455
Liam & Megs,Beer Garden,51.481012,-0.019146
Janni,Karaoke Bar,51.4820406087406,-0.021208730344082403
White Swan,Pub,51.481650935075415,-0.027978431943972353
The duke,Bar,51.48098869667624,-0.021849370825296116
Trap хата,Other Nightlife,51.47620636108427,-0.02583383324322401
The Little Crown,Pub,51.480023,-0.026653
The Winemakers Club Deptford,Wine Bar,51.480835,-0.02649352
Kofeyushki,Brewery,51.4814094009167,-0.021992440885824242
The Gipsy Moth,Pub,51.482416572524116,-0.009812065146203766
The Sail Loft,Pub,51.483040458087864,-0.014251884268618113
The Gate Clock (Wetherspoon),Pub,51.48151926576925,-0.011097021248243407
The Old Brewery,Brewery,51.482904926432525,-0.00810464223826164
Greenwich Tavern,Pub,51.479887489170856,-0.006966289726659595
Richard the First,Pub,51.47661445580507,-0.009755922611470604
The Lost Hour,Bar,51.478477984340216,-0.011576414108276367
Kings Arms,Pub,51.48104670313402,-0.007799256348781137
Coach & Horses,Pub,51.48144693433543,-0.008962710318253393
The Mitre Hotel,Pub,51.480188279721816,-0.00954986300843594
The Greenwich Union,Pub,51.47658700278182,-0.009841797114849388
Friends' Lounge,Lounge,51.481247,-0.005446896
The Prince Of Greenwich,Pub,51.476139577379634,-0.009835580727609898
Ye Olde Rose & Crown,Pub,51.47944366879276,-0.008092922384371162
Davy’s Wine Vaults,Wine Bar,51.47744339540388,-0.014897255331589483
Champagne + Fromage,French Restaurant,51.48128483757151,-0.009856226280908468
Up the Creek,Comedy Club,51.48146672313764,-0.011615032402603653
Belushi's,Sports Bar,51.477887755041365,-0.012936756265059399
London Brewers' Market At Greenwich Market,Beer Garden,51.481609,-0.009078
Spanish Galleon,Pub,51.481679823073094,-0.01002062170954874
Morden Arms,Pub,51.47697814551507,-0.011798381582856633
Greenwich Picturehouse Bar,Bar,51.479523016991436,-0.0098599250338723
The Cooperage,Cocktail Bar,51.47744948434584,-0.014697177294035
Vini Italiani Greenwich,Wine Bar,51.481785459844176,-0.009613037109375
Gold And Saddle,Pub,51.479724,-0.007068
River Bar @ Greenwich,Bar,51.482692468035225,-0.013561248779296875
Greenwich Street Party,Gay Bar,51.479492,-0.008116
Desperados Greenwich,Bar,51.48132892171462,-0.0102382051946768
Gourmet Bar,Bar,51.477826,-0.013443
Bar Latitude,Bar,51.48038411076216,-0.006637214968085977
2,Diner,51.48186396771197,-0.010943412780761719
Inc Bar,Bar,51.481922,-0.009427
Clarence Hall,Bar,51.48199086035397,-0.009219940665031023
Admiral Hardy,Pub,51.47892209595919,-0.015489358354324164
Shephard Neame,Bar,51.48174965574089,-0.009992315742081969
The Vanbrugh,Pub,51.483409892929885,0.007990781708083221
The Royal Standard,Pub,51.47671725481274,0.018799192457370707
Sophie's bar,Bar,51.4781573787332,0.0188254192471504
Fairbrass Towers,Cocktail Bar,51.479818,0.01887
White Swan,Pub,51.48187256525579,0.03751052117363899
Bugle Horn,Pub,51.481682658260304,0.03644081852573276
The Lord Herbert,Pub,51.47971363441105,0.0687989876380455
Fox And Hounds,Pub,51.48224,0.069941
The Old Mill,Pub,51.48170361107213,0.08407115936279297
The Star,Pub,51.48097958146562,0.07922396757817438
The Ship,Bar,51.47999843697467,0.09161109530496742
plumstead working mans club. kirkham street. SE18,Bar,51.478712,0.089864
74 Kirkham Street SE18,Bar,51.478724,0.089296
Abbey Arms,Pub,51.4783603470727,0.12418435086780726
The Fox,Pub,51.48119443443925,0.14460974556078005
The Village Inn,Pub,51.48008726125984,0.14365617072395756
Bomžatņiks,Beer Garden,51.47989344897887,0.18339241043759402
Bexley Brewery Ltd,Brewery,51.477872,0.195566
The Royal,Hotel,51.48283945845595,0.23098111152648926
The Fleet,Pub,51.478417,0.25095463
Burtons Snooker Bar,Bar,51.477791,0.322738
courtyard inn,Bar,51.477824,0.324064
The Dove,Pub,51.49050902866907,-0.2348617964805912
Blue Anchor,Pub,51.48958213460375,-0.2308604121208191
The Rutland Arms,Pub,51.48964106108684,-0.23116537866887762
The Salutation,Pub,51.492791911992676,-0.23327334408161196
The Plough & Harrow (Wetherspoon),Pub,51.4927116183529,-0.23152848075751542
Old City Arms,Pub,51.48939266683454,-0.22920476928737155
The Hampshire Hog,Gastropub,51.49280686171913,-0.23549502558903868
Toro Gordo,Tapas Restaurant,51.49259418687095,-0.2301166660199997
Oxford & Cambridge,Pub,51.4908557390474,-0.22875060633598907
دوانية مشرف فرع هامرسمث,Hookah Bar,51.492708,-0.230217
The Black Bull,Pub,51.493193,-0.238627
Drinksmotion,Cocktail Bar,51.49256681716545,-0.2328374204124491
"River Terrace, Riverside Studios",Beer Garden,51.48902302332671,-0.2293044233054276
Café des Amis,Wine Bar,51.488076456263755,-0.2304483714725411
Hope & Anchor,Pub,51.49166982953709,-0.22973803625424707
Mfstbsyjk,Hotel Bar,51.493081,-0.231807
The Ravenscourt Arms,Pub,51.49335036471073,-0.2384501449106171
Hammersmith Club,Bar,51.489780655556636,-0.23012895050832347
The Distillers,Pub,51.48935763975678,-0.22301512261737733
Latymers,Pub,51.49333695804907,-0.21664117926287327
Antipode,Coffee Shop,51.49100564126093,-0.22380964106515958
The Duke Of Cornwall,Pub,51.4906398157275,-0.22358401001385714
Lounge Bar,Cocktail Bar,51.49232235058393,-0.22035233076303593
The Yardbird,Pub,51.49175822127367,-0.22428856006973227
Old Suffolk Punch,Pub,51.4887799012396,-0.22287315640059094
The Pear Tree,Pub,51.486886565241406,-0.2158554131786524
The Dove Tavern,Pub,51.49031751408965,-0.21775471879734234
Planets,Hotel Bar,51.49237945961233,-0.21955490112304688
D'bans Filipino Karaoke Bar,Karaoke Bar,51.49184,-0.22472084
Balcony Bar,Bar,51.490936562354825,-0.22459745407104492
Roof Top 99,Other Nightlife,51.48879004786573,-0.22292999691990847
Foyer Bar,Bar,51.490936562354825,-0.22459745407104492
Circle Bar,Bar,51.490936562354825,-0.22459745407104492
hanoult,Beer Garden,51.491949,-0.222967
Searpean HeadQuarters,Speakeasy,51.490371,-0.225789
Famous 3 Kings,Pub,51.49073974615773,-0.20674577440285316
The Curtains Up,Pub,51.48935988428107,-0.2093974802544377
The Clarence Pub,Pub,51.48815604512587,-0.20409266713208302
Wassouf Lounge,Hookah Bar,51.4931543,-0.2089363999999705
Guntetstoners,Bar,51.4908592802022,-0.21040308646528652
The Elm,Pub,51.48672098954172,-0.20306122565344045
The Cumberlamd Arms,Bar,51.49076185141179,-0.20716952739611283
Nells Jazz & Blues Club,Jazz Club,51.492302639844496,-0.207442045211792
CHURCH,Nightclub,51.48900224876497,-0.2072213920326041
HLENCH RESIDENCE,Sake Bar,51.489480258632895,-0.2103281021118164
The Clarence,Pub,51.48655319213867,-0.20753179490566254
Sirocco,Sports Bar,51.490571,-0.209707
Moet Champagne Bar,Champagne Bar,51.48788887623797,-0.21009797253283424
Roots and Kultured Bar & Pub,Bar,51.492349,-0.207033
Vine Manor,Residential Building (Apartment / Condo),51.488072,-0.204161
Cafe Warwick Bar,Bar,51.491684,-0.203015
"The Trout, Hammersmith",Pub,51.490868,-0.209799
The Crescent Club,Lounge,51.49190144927422,-0.20604192314582748
The Old Oak,Pub,51.48734253376007,-0.20369200117056607
Twisted @ The Chunnel Club,Nightclub,51.49057315868669,-0.20970442929323604
The Bolton,Pub,51.48957161038704,-0.19026317148221594
Evans & Peel,Speakeasy,51.490190091115075,-0.190748617197526
Kings Head,Pub,51.493438428001525,-0.1925627680704424
Courtfield (Taylor Walker),Pub,51.49217876355609,-0.19280976811783068
The Blackbird,Pub,51.49172543588125,-0.19222032938390024
The Prince of Teck,Pub,51.492712877311504,-0.19374284125113833
The Finborough Arms,Pub,51.48661602167818,-0.19006598760902899
The Pembroke,Pub,51.489064019169604,-0.19151272983331954
187 Earls Court Road Pub,Pub,51.492018739579336,-0.1927328109741211
Flora Indica,Bar,51.4897016,-0.1898276
Ashbee's,Wine Bar,51.49319904667983,-0.19205500929743807
champagne bar,Champagne Bar,51.49212720075654,-0.19525667146232248
Vaudeville Night Club,Nightclub,51.491668,-0.195017
On Board Karaoke Bar,Karaoke Bar,51.492555496523465,-0.19381738769271328
ПАБ Fullrs Alw&Pie London,Brewery,51.491643,-0.192385
The Vibe,Bar,51.49152649234844,-0.19545358048762115
Infinity,Bar,51.48870353382146,-0.19278523633877204
vaudeville,Nightclub,51.492238,-0.194169
O'Neils Earls Court,Bar,51.489957522984234,-0.19019955756278753
БАИНЬКИ,Other Nightlife,51.492469,-0.189909
The Rembrandt Room,Pub,51.489582,-0.19045763
Rendezvous 2,Brewery,51.493568,-0.191799
The Bar,Bar,51.48953234792679,-0.19427327182110843
Thyme Restaurant,Restaurant,51.49369,-0.19079593
The Bolton,Bar,51.489149749112656,-0.18975493331044418
The Richmond,Pub,51.49217249811689,-0.1935235608576541
The Anglesea Arms,Gastropub,51.49019779831426,-0.1767369529460937
Zetland Arms,Pub,51.4933561230402,-0.1759939606869834
Blakes London,Hotel,51.48924098844248,-0.18008676243079555
Janet's Bar,Cocktail Bar,51.493630924507,-0.17508374986035982
The Sydney Arms,Pub,51.48882534846617,-0.16970974296014815
Albert's Club,Nightclub,51.49253163845042,-0.17832187885026338
Vini Italiani,Wine Shop,51.492760218412904,-0.1769818480092895
K Bar,Lounge,51.49278023605742,-0.17826103374091115
Japanese Garden,Tea Room,51.489226402764324,-0.18013715744018555
Below Bar at Blakes,Lounge,51.489362,-0.180079
The Crown and Thai Princess,Pub,51.490226930500675,-0.17339153376216535
Manson Place,Bar,51.49300615920521,-0.17746071743309294
Kosmopol,Bar,51.487268684612374,-0.17885768601764698
Lemon Shisha Lounge,Lounge,51.493538,-0.176218
Moroccan Restaurant and Lounge,Hookah Bar,51.49254536105503,-0.17872132130084548
86 Brompton,Bar,51.49034302927699,-0.16865637877002357
Entrance bar,Pub,51.493554,-0.175479
Aubrey Restaurant & Bar,Restaurant,51.49280067745083,-0.17820410489168992
Kavanagh's,Sports Bar,51.49270277577531,-0.17858221680071557
cehennem,Gay Bar,51.49375,-0.17423
La Cucina Club,Nightclub,51.49272089536144,-0.17677866640439757
The Stead Of Sin,Gay Bar,51.492351,-0.17076
Urina kal'yanaya,Hookah Bar,51.48885471788257,-0.17642543803942035
Sussex Mansions Palace,Lounge,51.49263410885378,-0.17662296181796144
"The Crown, Dovehouse Street",Pub,51.48864891964108,-0.1756721117896085
Lemon Lounge,Lounge,51.493432,-0.17618
The Crown,Pub,51.49028919318729,-0.17338780392551376
Juliet's Bar,Lounge,51.493368,-0.174897
sakerum,Nightclub,51.4924375,-0.1783725
La Cucina Club,Nightclub,51.492157,-0.171854
Andy's,Other Nightlife,51.486834,-0.178891
Club 5A,Speakeasy,51.493583,-0.175251
Robinson's,Gay Bar,51.486362,-0.17363
Salamontini,Strip Club,51.49223101823545,-0.1709975929421877
Dalkon Sheild,Gay Bar,51.493482,-0.176227
333,Lounge,51.48855393586948,-0.17775454006704175
Manicomio Restaurant,Bar,51.491360452681036,-0.1592148105783209
The Botanist,English Restaurant,51.49273166187537,-0.15694219815772975
Rose & Crown,Pub,51.490176184895624,-0.1568007518856407
Chelsea Potter,Pub,51.488670254011375,-0.16581461996402777
Sloane Club,Social Club,51.490572456088074,-0.15704820638485228
11 Cadogan Gardens,Hotel,51.49364285031129,-0.15953368644563096
The Fox & Hounds,Pub,51.491144582035425,-0.15484114643676922
The Phoenix,Pub,51.48854321389111,-0.16259740608586906
Kiru Restaurant,Japanese Restaurant,51.49062412808283,-0.16598876504991505
Tonteria Express,Cocktail Bar,51.492717702237265,-0.1570408163777308
Hans' Bar and Grill,Restaurant,51.493728794427405,-0.1588672399520874
The Pheasantry,Bar,51.48894046707684,-0.16522935246474832
Kings Club,Nightclub,51.48864474867663,-0.1652870083387626
Pommery Champagne Bar @ Patridges Farmers Mkt,Champagne Bar,51.49034581098771,-0.161993441573045
14 Markham Street,Other Nightlife,51.489689,-0.165289
Mamilanji,Bar,51.49013660157202,-0.16488752603375312
wine experience London,Wine Bar,51.490595,-0.157789
Album Bar & Kitchen,Bar,51.49048031803369,-0.16592270218645774
Soho House Members Club,Lounge,51.488900037475766,-0.1573725112943775
khalil maamoon,Lounge,51.491040006743724,-0.16490243154325238
Onefourone London,Nightclub,51.492384,-0.157633
Khalil Maamoon,Cocktail Bar,51.48839772181331,-0.16439932931095266
tantorini,Nightclub,51.491104,-0.157761
No 11 Pimlico Road,Bar,51.49091112232356,-0.15078789188622138
St George's Tavern,Pub,51.493357039353874,-0.14436901768478172
The Marquis Of Westminster,Gastropub,51.49182473630574,-0.1410421248264116
Travellers' Tavern,Pub,51.49298159331865,-0.14872439063266535
The Constitution,Pub,51.49130837090988,-0.13912726172378165
The White Ferry,Pub,51.488975,-0.14681
The Prince Of Wales,Pub,51.49262354609663,-0.14047672009576875
Greene King,Pub,51.492909058236755,-0.14883356326031064
Rileys,Sports Bar,51.492151810123325,-0.15044150256592353
Clarendon Cocktail Cellar,Speakeasy,51.490583763687276,-0.14490365982055664
Ministry of 5th Floor,Lounge,51.488181,-0.141137
64°,Restaurant,51.490652,-0.144834
The St. Georges Tavern,Bar,51.49177329137734,-0.14136329866749817
Omar's Place,Mediterranean Restaurant,51.49146596399057,-0.14635875821113586
Club D'Jan,Nightclub,51.49300737286109,-0.14089107513427734
The Prince Alfred,Pub,51.49134672822772,-0.1419063992080428
PSO Tool Bar,Bar,51.49355129636194,-0.1465016405891996
Coco Moda London,Dive Bar,51.489975,-0.144655
The Victoria,Pub,51.49334136574624,-0.14724254608154297
The George,Pub,51.49304627423099,-0.14611541061618957
A's dream,Speakeasy,51.490626,-0.145566
Marquee Bar,Bar,51.49196,-0.141009
Yanis' Place,Bar,51.487802,-0.14907
Mischief Manor North,Cocktail Bar,51.487838265666525,-0.14581088891666527
Bar Italia,Sports Bar,51.49201888781931,-0.14205380578545246
The Greyhound,Pub,51.491530559544955,-0.14641770175866264
Morpeth Arms,Pub,51.48930975867552,-0.12862188852961842
The White Swan,Pub,51.48971351969909,-0.13156601879022228
The Gallery,Pub,51.488905654245386,-0.13426613509814758
Skyloft,Lounge,51.49230170959801,-0.12579451230370162
The Grosvenor,Pub,51.4865500977277,-0.1313891014354676
Pride of Pimlico,Pub,51.489844003821446,-0.1355445264419224
City Cafe,Restaurant,51.49313149958701,-0.12671784947520215
Executive Lounge - Doubletree by Hilton Westminster,Hotel Bar,51.49321858710299,-0.12694737147802093
Millbank Lounge,Hotel Bar,51.49325408636931,-0.12719089719838433
Skybar,Bar,51.492257937538724,-0.1256003887022412
Dans Le Salon Au Panoramique,Other Nightlife,51.48826123324185,-0.12996084547838396
The Millbank Flophouse,Pub,51.49042548066573,-0.1331709022327333
Floor 2 Millbank Tower,Bar,51.492114,-0.125571
Drinking HQ (Yeruult's House),Lounge,51.491798,-0.130259
The Lord High Admiral,Pub,51.49112,-0.134641
Pimlico Beer Garden,Pub,51.49151355424127,-0.13495611373164199
Gleb's Plade,Cocktail Bar,51.489406,-0.136163
The Brasserie,Bar,51.491916,-0.125615
SkyLounge Mint Hotel,Lounge,51.492999,-0.126301
Floor 29,Bar,51.492683,-0.125454
Mint bar,Bar,51.49311890072209,-0.12713276568855428
The Black Dog,Pub,51.48859861451886,-0.12076748467158926
Zeitgeist @ The Jolly Gardeners,Pub,51.49136448497063,-0.11811966811360079
The Dog House,Pub,51.489024322960546,-0.11093719896561006
The Royal Oak,Pub,51.49315859958058,-0.1130865242652005
The Pilgrim Bar & Kitchen,Pub,51.48690979587186,-0.11377260105762581
The Ship,Pub,51.493028062809366,-0.1108393933332636
The Tommyfield,Gastropub,51.48863829534054,-0.11095424781906783
The Duchy Arms,Pub,51.489274843284306,-0.1145553012427556
The White Hart,Bar,51.488673,-0.111108
Little Lisbon,Portuguese Restaurant,51.48718702772031,-0.11128744018943307
The Locker Room,Bath House,51.48771841286451,-0.11031307100726354
Oxymoron,Pub,51.492733,-0.11213243
Aren,Nightclub,51.489244,-0.121103
Skyline Suite,Other Nightlife,51.4915652959439,-0.12062949560369797
Partovi's Palacw,Speakeasy,51.48819338601856,-0.11635298645106629
Fitladz,Gay Bar,51.48947382323577,-0.11852669677010308
insomnia,Other Nightlife,51.48925019508325,-0.11646620838016815
paul's,Gay Bar,51.48715591430664,-0.1111413985490799
Old Red Lion,Pub,51.489460705478095,-0.10495148372566897
Corsica Studios,Music Venue,51.49354599179485,-0.09854069905534102
The Beehive,Pub,51.48616854295775,-0.09829657501736666
Brasserie & Wine Bar Toulouse Lautrec,French Restaurant,51.49118607203741,-0.10322476151864156
Hop Art,Beer Bar,51.493053,-0.09863086
The Manor Of Walworth,Pub,51.491163,-0.097721
Six Yard Box,Sports Bar,51.49308406608104,-0.09896880802229549
Safestay Bar & Breakfast Room,Breakfast Spot,51.49065550866095,-0.09777798399595
The Tankard,Pub,51.49011638595487,-0.0969485874540751
Hampton Court Pub,Pub,51.49176857200663,-0.10094503111230889
Long Wave Bar,Bar,51.49308519439281,-0.09862533481245876
Jaded,Other Nightlife,51.493546218816164,-0.09862820612408701
JB Tilers,Tiki Bar,51.4870986,-0.09790210000005573
Hampton Court Palace Hotel,Hotel,51.49182935431009,-0.101009825099509
Bison Bar,Pub,51.487353,-0.101494375
Rafael's Lounge,Lounge,51.487498,-0.095963
Husky Bites Cafe Bar,Pub,51.49016996381896,-0.09860860372093792
Beaten Path,Pub,51.488184,-0.09532
Peggy’s,Cocktail Bar,51.492944,-0.099287
The Alchemist's Workshop,Speakeasy,51.487324557836644,-0.10021257839729049
Gladstone,Pub,51.489479064941406,-0.09359840303659439
Little Creatures Brewing,Beer Bar,51.493409,-0.098533
The 'Elepad',Bar,51.492992,-0.09999912
Cuba,Cocktail Bar,51.489793061059515,-0.09491656687170474
TKI Fridays,Cocktail Bar,51.4899894,-0.10502529999996568
Hour Glass Hotel,Pub,51.486381590875204,-0.08431359543619547
The Huntsman & Hounds,Pub,51.49001134725982,-0.0857234001159668
The Victory,Pub,51.491806,-0.087212
Radcliffe Square,Other Nightlife,51.493492,-0.08442588
Studio 64,Speakeasy,51.4908931411277,-0.08376538753509521
Queen Victoria PH,Pub,51.49238399282084,-0.06696698591605517
The Old Bank,Pub,51.49049647293,-0.06621456977910604
Summit,Other Nightlife,51.491109,-0.071974
Lol,Nightclub,51.486576,-0.073067
Fourpure Brewing Co. Tap Room,Brewery,51.48910467182152,-0.05405272046401414
Partizan Brewery,Brewery,51.49173,-0.058164038
Partizan Brewery,Brewery,51.4916675909819,-0.059789704600326586
EeBria Taproom,Bar,51.491331790873076,-0.05897832770461929
Affinity Brew Co.,Brewery,51.49166,-0.059538
Spartan Brewery,Brewery,51.491605,-0.059638
Ancient Forresters,Pub,51.49158045661391,-0.0500110535835587
Bonfire Night In The Park,Other Nightlife,51.49312928142435,-0.05219303342313589
Brewery Mile,Brewery,51.491713,-0.059703
The Bramcote Arms,Bar,51.4877150924504,-0.05434626691479208
Strawberry Moo,Bar,51.4901310665643,-0.043856922150867894
Leyshons Brothers Bonded Warehouse,Other Nightlife,51.49121621276665,-0.03724894342080051
The Farriers Arms,Bar,51.49145761385475,-0.04444420337677002
Fashion Gym.,Wine Bar,51.488727,-0.04374
HubBub Bar & Kitchen,Bar,51.49215612868186,-0.024166471462658635
Ky's Leisure Lounge,Beer Garden,51.489359,-0.02402
The Lord Nelson,Pub,51.48731108070457,-0.013225458357127877
The Great Eastern,Pub,51.488601,-0.008344
"Poplar, Blackwall & District Rowing Club",Athletics & Sports,51.48643413812334,-0.009890960614611694
The Watermans Arms,Pub,51.48716786642947,-0.009725222916173119
Not A Pub,Beer Garden,51.493423,-0.006987
Dupa,Hookah Bar,51.4908984987869,-0.006349692566582152
Potters Lodge,Karaoke Bar,51.487367972192054,-0.01033798110836313
PáratlanZokni,Wine Bar,51.48876190185547,-0.008345100097358227
Beer Garden,Bar,51.492265,-0.006624
Mourinho's,Pub,51.49224428247729,-0.006430736674681749
Meantime Brewing Company,Brewery,51.48956782252532,0.008575079089131582
The Pelton Arms,Pub,51.48681264003772,0.0024497316305946326
Tasting Rooms,Bar,51.489485,0.008469
Royal Standard,Pub,51.486844954280635,0.004036889806266769
Holiday Inn Express Bar,Hotel Bar,51.492207,0.009836
The Pickwick Pub,Pub,51.48695030676542,0.023765823116403784
The Royal Oak,Pub,51.48825459291228,0.039451471443159886
Crossbar’s,Sports Bar,51.487205,0.036908
Bartrams,Bar,51.48713584724999,0.03438182933615297
the castle tavern,Bar,51.491178,0.055302
Dial Arch,Pub,51.4922711725029,0.06992796822548684
The Guardhouse,Pub,51.49189537900289,0.06948762683238618
The Great Harry (Wetherspoon),Pub,51.489985316727484,0.06709897918654129
Earl of Chatham,Pub,51.49032782161788,0.06683626797100828
Woolwich Equitable,Bar,51.49007583347303,0.06813078844684516
The Bull Tavern,Pub,51.489873129520234,0.06893913488454412
O'Connors,Pub,51.49111942066173,0.06941244479472145
Ordnance The Old Gun Pit,Pub,51.491145,0.069494
Angelsea Arms,Pub,51.48857171531708,0.0670766830444336
Elephant and Castle,Pub,51.49097553202804,0.06871857028282674
Market Bar,Bar,51.490894,0.070645
Queens Arms,Pub,51.489998333341276,0.07012901331674841
Da Boss,Nightclub,51.49342,0.06323
Özlem's Balkon,Hookah Bar,51.48782207944612,0.06582221390557523
George IV,Bar,51.49102643731304,0.060495801224121556
Ordanance arms,Bar,51.489693,0.06807245
The Anglesea,Pub,51.489356994628906,0.06752125918865204
Prince Albert (Rose's),Bar,51.49341656499014,0.06335391999104906
WoolwichWall,Bar,51.49019,0.067493
the rose inn,Pub,51.486089932484084,0.07899244204214942
Volunteer,Beer Garden,51.48721445186518,0.09192090976946427
O'dowds,Pub,51.48829368714418,0.089516812729305
Jolly Marshman,Bar,51.490303,0.113532
Abbey Arms Pub,Pub,51.49081631885529,0.12125730514526366
"The Alma Tavern, Kings Highway",Pub,51.492943,0.12498
Empire Lounge,Lounge,51.486536,0.173131
Valley Road Club,Pub,51.48640000110305,0.16808101026876457
The Chafford Hundred (Brewers Fayre),Pub,51.4905393,0.2907937
Unit 4 Wine Bar,Wine Bar,51.486151357127994,0.28834415288587556
Victoria Springs,Beer Garden,51.49045471794439,0.3344116431082562
The Oak,Pub,51.48894582358093,0.3400397300720215
George and Dragon,Pub,51.487728,0.411188
The Eagle,Pub,51.50060023613851,-0.23943128680855205
The Oak W12,Bar,51.499792994803634,-0.23802413186218613
Loading Bar (Server),Arcade,51.501133,-0.23326032
Crown & Sceptre,Pub,51.50347081789945,-0.2365084168066934
Anglesea Arms,Pub,51.498574181402,-0.23529722269003842
Shepherd's Bush Club,Bar,51.500288848340645,-0.23488780442419194
Cathnor Road,Lounge,51.50303656578428,-0.2348909914568786
Juniper Bar,Cocktail Bar,51.49828622817228,-0.23409304006825266
Wink Towers,Residential Building (Apartment / Condo),51.500922346012885,-0.23399591445922852
The Butchers Hook,Pub,51.49649423763226,-0.23493115841478487
Shisha Garden & Lounge,Hookah Bar,51.501328,-0.231198
Eve,Sake Bar,51.502026,-0.232972
BrewDog Shepherds Bush,Beer Bar,51.50293781461299,-0.22397518157958982
The Queens Head,Pub,51.49603106847841,-0.22070404981351047
The Bird in Hand,Gastropub,51.49968681696719,-0.21556161988254366
The Sindercombe Social,Pub,51.503185,-0.223886
The Brook Green Hotel,Pub,51.497238633611644,-0.22288132280401374
Richmond Arms,Pub,51.500383477845986,-0.22198036676468197
The Havelock Tavern,Gastropub,51.49928690061517,-0.21604171045618337
MuYang,Chinese Restaurant,51.50263,-0.22464104
The Jameson,Pub,51.49723126468431,-0.21593589210874478
Smith's Bar,Cocktail Bar,51.49726805376078,-0.2228299317015803
Studio Bar + Kitchen,Hotel Bar,51.50268,-0.217384
Cherdak,Nightclub,51.501803,-0.218731
The Richmond,Bar,51.4992793670751,-0.22208328599940685
Orlando Hotel,Bed & Breakfast,51.49872484479738,-0.2222136498457619
Shepherds Bar,Bar,51.50285133228218,-0.21888176954957939
K Lounge Bar,Bar,51.5017901350005,-0.217470125999569
36 Faroe Road,Wine Bar,51.49990875341635,-0.21485160946833579
studio,Hotel Bar,51.502644,-0.217984
Lounge Ibis,Lounge,51.503332,-0.220461
Jamesons,Bar,51.50221254682661,-0.21712175204738524
dreamteam perfect sleepspot,Lounge,51.500544,-0.225213
Shepherds Studios Central,Office,51.502885,-0.218657
Executive Lounge Hilton,Hotel Bar,51.49650804763936,-0.20632019527530182
Society Bar & Restaurant,Restaurant,51.496390055467586,-0.20688094664719545
Crown & Sceptre,Pub,51.49800788109329,-0.2076108782250403
Enoteca Rosso,Wine Shop,51.498398,-0.2011241
The Design Museum Members Bar,Bar,51.499971,-0.200444
Blagclub,Nightclub,51.50027513595424,-0.2109328021458226
ghelyoon e farahzad,Lounge,51.499938,-0.211476
Favourites Dessert Lounge,Gastropub,51.49815030000001,-0.2016711999999643
Plum Grill,Hotel Bar,51.496366,-0.207026
Builders Arms,Pub,51.49936703040432,-0.18824025256357282
Goat,Pub,51.50241548980055,-0.18766960592390777
Prince Of Wales,Pub,51.50229902887562,-0.19106693642638167
Le Petit Sud,Wine Bar,51.501458,-0.184138
Devonshire Arms,Pub,51.496769281143045,-0.19245051017245177
Elephant & Castle,Pub,51.50293824858367,-0.19358488146517286
Piano Bar,Piano Bar,51.50115184507191,-0.19284614401409664
The Greyhound,Pub,51.501037174692286,-0.1896077884639155
